Vers 81
USE_SERIAL_FEEDBACK=true
DEVELOPMENT_MODE=false
USE_RMC_ONLY=false

$GPRMC,171103.000,A,4308.2938,N,07726.2550,W,0.06,280.45,091019,,,A*7D
$GPGGA,171103.250,4308.2945,N,07726.2555,W,1,05,1.44,96.1,M,-34.4,M,,*6E
$GPRMC,171103.500,A,4308.2951,N,07726.2560,W,0.03,314.12,091019,,,A*7F
$GPGGA,171103.750,4308.2956,N,07726.2563,W,1,05,1.44,103.0,M,-34.4,M,,*50
$GPRMC,171104.000,A,4308.2962,N,07726.2568,W,0.02,340.47,091019,,,A*75
$GPGGA,171104.250,4308.2965,N,07726.2570,W,1,05,1.44,108.4,M,-34.4,M,,*5F
$GPRMC,171104.500,A,4308.2968,N,07726.2573,W,0.03,80.64,091019,,,A*4F
$GPGGA,171104.750,4308.2971,N,07726.2575,W,1,05,1.44,112.2,M,-34.4,M,,*57
$GPRMC,171105.000,A,4308.2975,N,07726.2578,W,0.02,105.61,091019,,,A*74
$GPGGA,171105.250,4308.2978,N,07726.2579,W,1,05,1.44,117.0,M,-34.4,M,,*51
$GPRMC,171105.500,A,4308.2981,N,07726.2581,W,0.02,339.26,091019,,,A*72
$GPGGA,171105.750,4308.2986,N,07726.2585,W,1,05,1.44,122.6,M,-34.4,M,,*56
$GPRMC,171106.000,A,4308.2988,N,07726.2586,W,0.01,123.89,091019,,,A*75
$GPGGA,171106.250,4308.2994,N,07726.2590,W,1,05,1.44,127.9,M,-34.4,M,,*5D
$GPRMC,171106.500,A,4308.2997,N,07726.2592,W,0.01,276.93,091019,,,A*73
$GPGGA,171106.750,4308.3000,N,07726.2594,W,1,05,1.44,132.9,M,-34.4,M,,*5D
$GPRMC,171107.000,A,4308.3004,N,07726.2597,W,0.04,83.70,091019,,,A*40
$GPGGA,171107.250,4308.3007,N,07726.2599,W,1,05,1.44,137.5,M,-34.4,M,,*5A
$GPRMC,171107.500,A,4308.3010,N,07726.2602,W,0.01,265.76,091019,,,A*76
$GPGGA,171107.750,4308.3013,N,07726.2603,W,1,05,1.44,141.3,M,-34.4,M,,*5D
$GPRMC,171108.000,A,4308.3015,N,07726.2605,W,0.05,325.09,091019,,,A*77
$GPGGA,171108.250,4308.3018,N,07726.2607,W,1,05,1.45,144.0,M,-34.4,M,,*5F
$GPRMC,171108.500,A,4308.3019,N,07726.2608,W,0.01,238.81,091019,,,A*7A
$GPGGA,171108.750,4308.3020,N,07726.2608,W,1,05,1.44,145.1,M,-34.4,M,,*5F
$GPRMC,171109.000,A,4308.3022,N,07726.2609,W,0.03,111.45,091019,,,A*75
$GPGGA,171109.250,4308.3022,N,07726.2610,W,1,05,1.44,146.1,M,-34.4,M,,*53
$GPRMC,171109.500,A,4308.3023,N,07726.2610,W,0.02,98.08,091019,,,A*41
$GPGGA,171109.750,4308.3024,N,07726.2611,W,1,05,1.44,146.4,M,-34.4,M,,*54
$GPRMC,171110.000,A,4308.3024,N,07726.2611,W,0.08,307.10,091019,,,A*7C
$GPGGA,171110.250,4308.3025,N,07726.2611,W,1,05,1.44,146.4,M,-34.4,M,,*58
$GPRMC,171110.500,A,4308.3025,N,07726.2611,W,0.03,64.55,091019,,,A*44
$GPGGA,171110.750,4308.3025,N,07726.2612,W,1,05,1.44,146.3,M,-34.4,M,,*59
$GPRMC,171111.000,A,4308.3025,N,07726.2611,W,0.03,284.27,091019,,,A*79
$GPGGA,171111.250,4308.3025,N,07726.2611,W,1,05,1.45,145.4,M,-34.4,M,,*5B
$GPRMC,171111.500,A,4308.3025,N,07726.2611,W,0.04,283.15,091019,,,A*7D
$GPGGA,171111.750,4308.3025,N,07726.2612,W,1,05,1.44,145.1,M,-34.4,M,,*59
$GPRMC,171112.000,A,4308.3026,N,07726.2612,W,0.02,178.66,091019,,,A*7E
$GPGGA,171112.250,4308.3026,N,07726.2612,W,1,05,1.45,144.8,M,-34.4,M,,*55
$GPRMC,171112.500,A,4308.3026,N,07726.2611,W,0.06,316.10,091019,,,A*77
$GPGGA,171112.750,4308.3026,N,07726.2611,W,1,05,1.44,144.4,M,-34.4,M,,*5E
$GPRMC,171113.000,A,4308.3026,N,07726.2611,W,0.18,277.34,091019,,,A*7C
$GPGGA,171113.250,4308.3026,N,07726.2611,W,1,05,1.45,144.2,M,-34.4,M,,*5D
$GPRMC,171113.500,A,4308.3026,N,07726.2611,W,0.21,277.35,091019,,,A*72
$GPGGA,171113.750,4308.3026,N,07726.2611,W,1,05,1.44,144.4,M,-34.4,M,,*5F
$GPRMC,171114.000,A,4308.3026,N,07726.2611,W,0.23,293.82,091019,,,A*74
$GPGGA,171114.250,4308.3026,N,07726.2611,W,1,05,1.45,144.4,M,-34.4,M,,*5C
$GPRMC,171114.500,A,4308.3026,N,07726.2611,W,0.18,288.32,091019,,,A*78
$GPGGA,171114.750,4308.3025,N,07726.2611,W,1,05,1.44,144.0,M,-34.4,M,,*5F
$GPRMC,171115.000,A,4308.3025,N,07726.2611,W,0.21,266.19,091019,,,A*7C
$GPGGA,171115.250,4308.3024,N,07726.2610,W,1,05,1.45,143.3,M,-34.4,M,,*5E
$GPRMC,171115.500,A,4308.3023,N,07726.2610,W,0.16,277.31,091019,,,A*70
$GPGGA,171115.750,4308.3022,N,07726.2609,W,1,05,1.45,142.1,M,-34.4,M,,*56
$GPRMC,171116.000,A,4308.3021,N,07726.2608,W,0.17,271.81,091019,,,A*71
$GPGGA,171116.250,4308.3020,N,07726.2607,W,1,05,1.45,140.6,M,-34.4,M,,*59
$GPRMC,171116.500,A,4308.3020,N,07726.2607,W,0.14,300.05,091019,,,A*72
$GPGGA,171116.750,4308.3019,N,07726.2606,W,1,05,1.44,139.1,M,-34.4,M,,*5F
$GPRMC,171117.000,A,4308.3018,N,07726.2605,W,0.10,320.22,091019,,,A*7C
$GPGGA,171117.250,4308.3017,N,07726.2604,W,1,05,1.45,137.8,M,-34.4,M,,*51
$GPRMC,171117.500,A,4308.3016,N,07726.2603,W,0.02,273.12,091019,,,A*76
$GPGGA,171117.750,4308.3015,N,07726.2603,W,1,05,1.45,136.6,M,-34.4,M,,*5E
$GPRMC,171118.000,A,4308.3015,N,07726.2603,W,0.10,259.42,091019,,,A*71
$GPGGA,171118.250,4308.3014,N,07726.2602,W,1,05,1.45,135.5,M,-34.4,M,,*54
$GPRMC,171118.500,A,4308.3013,N,07726.2602,W,0.11,258.90,091019,,,A*7C
$GPGGA,171118.750,4308.3013,N,07726.2602,W,1,05,1.44,134.5,M,-34.4,M,,*56
$GPRMC,171119.000,A,4308.3012,N,07726.2601,W,0.03,292.73,091019,,,A*72
$GPGGA,171119.250,4308.3011,N,07726.2600,W,1,05,1.45,133.7,M,-34.4,M,,*56
$GPRMC,171119.500,A,4308.3011,N,07726.2600,W,0.01,28.41,091019,,,A*45
$GPGGA,171119.750,4308.3011,N,07726.2600,W,1,05,1.44,133.1,M,-34.4,M,,*54
$GPRMC,171120.000,A,4308.3011,N,07726.2600,W,0.18,307.29,091019,,,A*72
$GPGGA,171120.250,4308.3010,N,07726.2600,W,1,05,1.45,132.7,M,-34.4,M,,*5C
$GPRMC,171120.500,A,4308.3010,N,07726.2600,W,0.17,296.86,091019,,,A*75
$GPGGA,171120.750,4308.3010,N,07726.2600,W,1,05,1.45,132.3,M,-34.4,M,,*5D
$GPRMC,171121.000,A,4308.3009,N,07726.2599,W,0.15,302.69,091019,,,A*75
$GPGGA,171121.250,4308.3009,N,07726.2599,W,1,05,1.44,132.3,M,-34.4,M,,*53
$GPRMC,171121.500,A,4308.3009,N,07726.2598,W,0.11,321.73,091019,,,A*7F
$GPGGA,171121.750,4308.3009,N,07726.2598,W,1,05,1.45,132.4,M,-34.4,M,,*51
$GPRMC,171122.000,A,4308.3008,N,07726.2598,W,0.14,301.08,091019,,,A*73
$GPGGA,171122.250,4308.3008,N,07726.2598,W,1,05,1.45,132.3,M,-34.4,M,,*51
$GPRMC,171122.500,A,4308.3008,N,07726.2598,W,0.16,313.81,091019,,,A*76
$GPGGA,171122.750,4308.3008,N,07726.2598,W,1,05,1.44,132.1,M,-34.4,M,,*57
$GPRMC,171123.000,A,4308.3008,N,07726.2598,W,0.24,294.85,091019,,,A*79
$GPGGA,171123.250,4308.3007,N,07726.2598,W,1,05,1.44,131.8,M,-34.4,M,,*56
$GPRMC,171123.500,A,4308.3007,N,07726.2598,W,0.22,280.63,091019,,,A*78
$GPGGA,171123.750,4308.3008,N,07726.2598,W,1,05,1.44,131.3,M,-34.4,M,,*57
$GPRMC,171124.000,A,4308.3009,N,07726.2597,W,0.60,20.45,091019,,,A*41
$GPGGA,171124.250,4308.3011,N,07726.2596,W,1,05,1.45,130.8,M,-34.4,M,,*58
$GPRMC,171124.500,A,4308.3013,N,07726.2596,W,1.96,26.27,091019,,,A*44
$GPGGA,171124.750,4308.3016,N,07726.2595,W,1,05,1.44,130.2,M,-34.4,M,,*52
$GPRMC,171125.000,A,4308.3021,N,07726.2595,W,4.92,11.18,091019,,,A*4B
$GPGGA,171125.250,4308.3025,N,07726.2594,W,1,05,3.36,129.8,M,-34.4,M,,*52
$GPRMC,171125.500,A,4308.3028,N,07726.2593,W,6.55,6.14,091019,,,A*72
$GPGGA,171125.750,4308.3033,N,07726.2592,W,1,05,3.36,129.4,M,-34.4,M,,*5A
$GPRMC,171126.000,A,4308.3038,N,07726.2591,W,7.91,359.07,091019,,,A*75
$GPGGA,171126.250,4308.3043,N,07726.2591,W,1,05,3.36,129.1,M,-34.4,M,,*5D
$GPRMC,171126.500,A,4308.3049,N,07726.2591,W,8.15,1.49,091019,,,A*71
$GPGGA,171126.750,4308.3054,N,07726.2590,W,1,05,3.36,128.7,M,-34.4,M,,*58
$GPRMC,171127.000,A,4308.3059,N,07726.2590,W,7.88,3.73,091019,,,A*75
$GPGGA,171127.250,4308.3064,N,07726.2589,W,1,05,3.36,128.5,M,-34.4,M,,*55
$GPRMC,171127.500,A,4308.3070,N,07726.2589,W,7.78,5.43,091019,,,A*79
$GPGGA,171127.750,4308.3075,N,07726.2588,W,1,05,3.36,128.4,M,-34.4,M,,*50
$GPRMC,171128.000,A,4308.3079,N,07726.2587,W,6.69,8.48,091019,,,A*73
$GPGGA,171128.250,4308.3083,N,07726.2586,W,1,05,3.36,128.2,M,-34.4,M,,*5B
$GPRMC,171128.500,A,4308.3087,N,07726.2584,W,5.84,11.56,091019,,,A*43
$GPGGA,171128.750,4308.3090,N,07726.2583,W,1,05,3.36,128.3,M,-34.4,M,,*58
$GPRMC,171129.000,A,4308.3093,N,07726.2582,W,4.58,13.30,091019,,,A*46
$GPGGA,171129.250,4308.3096,N,07726.2581,W,1,05,3.37,128.6,M,-34.4,M,,*5C
$GPRMC,171129.500,A,4308.3099,N,07726.2580,W,4.11,14.45,091019,,,A*43
$GPGGA,171129.750,4308.3102,N,07726.2578,W,1,05,3.37,129.1,M,-34.4,M,,*55
$GPRMC,171130.000,A,4308.3105,N,07726.2577,W,4.30,22.79,091019,,,A*4B
$GPGGA,171130.250,4308.3108,N,07726.2575,W,1,05,3.37,130.0,M,-34.4,M,,*56
$GPRMC,171130.500,A,4308.3111,N,07726.2573,W,4.16,31.40,091019,,,A*43
$GPGGA,171130.750,4308.3113,N,07726.2571,W,1,06,1.63,130.4,M,-34.4,M,,*59
$GPRMC,171131.000,A,4308.3115,N,07726.2568,W,3.56,40.96,091019,,,A*47
$GPGGA,171131.250,4308.3117,N,07726.2566,W,1,06,1.31,130.7,M,-34.4,M,,*5B
$GPRMC,171131.500,A,4308.3120,N,07726.2564,W,3.93,38.81,091019,,,A*48
$GPGGA,171131.750,4308.3122,N,07726.2561,W,1,06,1.63,130.8,M,-34.4,M,,*57
$GPRMC,171132.000,A,4308.3123,N,07726.2558,W,3.84,52.61,091019,,,A*46
$GPGGA,171132.250,4308.3124,N,07726.2555,W,1,06,1.31,130.8,M,-34.4,M,,*57
$GPRMC,171132.500,A,4308.3125,N,07726.2552,W,3.51,65.80,091019,,,A*4C
$GPGGA,171132.750,4308.3126,N,07726.2549,W,1,06,1.31,130.5,M,-34.4,M,,*50
$GPRMC,171133.000,A,4308.3126,N,07726.2547,W,2.45,76.71,091019,,,A*47
$GPGGA,171133.250,4308.3126,N,07726.2546,W,1,06,1.31,130.5,M,-34.4,M,,*5B
$GPRMC,171133.500,A,4308.3126,N,07726.2545,W,1.47,93.05,091019,,,A*49
$GPGGA,171133.750,4308.3126,N,07726.2545,W,1,06,1.31,130.4,M,-34.4,M,,*5C
$GPRMC,171134.000,A,4308.3127,N,07726.2545,W,0.76,94.45,091019,,,A*4A
$GPGGA,171134.250,4308.3127,N,07726.2545,W,1,06,1.31,130.3,M,-34.4,M,,*58
$GPRMC,171134.500,A,4308.3127,N,07726.2546,W,0.17,127.09,091019,,,A*7A
$GPGGA,171134.750,4308.3127,N,07726.2549,W,1,06,1.31,130.2,M,-34.4,M,,*50
$GPRMC,171135.000,A,4308.3127,N,07726.2552,W,1.07,252.79,091019,,,A*7D
$GPGGA,171135.250,4308.3126,N,07726.2556,W,1,06,1.31,130.1,M,-34.4,M,,*58
$GPRMC,171135.500,A,4308.3126,N,07726.2559,W,2.58,248.75,091019,,,A*7C
$GPGGA,171135.750,4308.3124,N,07726.2563,W,1,06,1.31,130.2,M,-34.4,M,,*5A
$GPRMC,171136.000,A,4308.3124,N,07726.2568,W,4.71,247.29,091019,,,A*71
$GPGGA,171136.250,4308.3123,N,07726.2574,W,1,06,1.64,130.4,M,-34.4,M,,*5B
$GPRMC,171136.500,A,4308.3123,N,07726.2578,W,4.89,253.98,091019,,,A*7A
$GPGGA,171136.750,4308.3122,N,07726.2584,W,1,05,1.36,130.7,M,-34.4,M,,*57
$GPRMC,171137.000,A,4308.3123,N,07726.2592,W,6.57,262.76,091019,,,A*79
$GPGGA,171137.250,4308.3124,N,07726.2601,W,1,05,1.70,130.8,M,-34.4,M,,*56
$GPRMC,171137.500,A,4308.3124,N,07726.2609,W,7.70,266.17,091019,,,A*7D
$GPGGA,171137.750,4308.3124,N,07726.2617,W,1,06,1.64,131.0,M,-34.4,M,,*5B
$GPRMC,171138.000,A,4308.3125,N,07726.2626,W,8.59,267.55,091019,,,A*78
$GPGGA,171138.250,4308.3125,N,07726.2635,W,1,06,1.64,131.1,M,-34.4,M,,*51
$GPRMC,171138.500,A,4308.3125,N,07726.2645,W,9.44,267.81,091019,,,A*7C
$GPGGA,171138.750,4308.3125,N,07726.2655,W,1,06,1.64,131.4,M,-34.4,M,,*57
$GPRMC,171139.000,A,4308.3126,N,07726.2664,W,9.82,271.95,091019,,,A*70
$GPGGA,171139.250,4308.3127,N,07726.2674,W,1,06,1.31,131.8,M,-34.4,M,,*5E
$GPRMC,171139.500,A,4308.3128,N,07726.2684,W,9.88,275.53,091019,,,A*71
$GPGGA,171139.750,4308.3131,N,07726.2696,W,1,06,1.31,133.3,M,-34.4,M,,*59
$GPRMC,171140.000,A,4308.3134,N,07726.2708,W,11.09,280.92,091019,,,A*45
$GPGGA,171140.250,4308.3138,N,07726.2721,W,1,06,1.31,134.9,M,-34.4,M,,*5B
$GPRMC,171140.500,A,4308.3142,N,07726.2734,W,12.20,284.51,091019,,,A*4D
$GPGGA,171140.750,4308.3146,N,07726.2747,W,1,06,1.31,136.5,M,-34.4,M,,*59
$GPRMC,171141.000,A,4308.3150,N,07726.2761,W,13.76,287.47,091019,,,A*4C
$GPGGA,171141.250,4308.3155,N,07726.2777,W,1,06,1.31,137.9,M,-34.4,M,,*51
$GPRMC,171141.500,A,4308.3160,N,07726.2791,W,15.09,289.06,091019,,,A*40
$GPGGA,171141.750,4308.3165,N,07726.2807,W,1,06,1.31,138.9,M,-34.4,M,,*50
$GPRMC,171142.000,A,4308.3169,N,07726.2822,W,16.24,289.32,091019,,,A*43
$GPGGA,171142.250,4308.3175,N,07726.2839,W,1,06,1.31,139.5,M,-34.4,M,,*57
$GPRMC,171142.500,A,4308.3180,N,07726.2856,W,17.26,290.85,091019,,,A*45
$GPGGA,171142.750,4308.3186,N,07726.2874,W,1,06,1.31,139.9,M,-34.4,M,,*5B
$GPRMC,171143.000,A,4308.3193,N,07726.2893,W,18.68,293.61,091019,,,A*46
$GPGGA,171143.250,4308.3203,N,07726.2916,W,1,06,1.31,140.5,M,-34.4,M,,*56
$GPRMC,171143.500,A,4308.3212,N,07726.2937,W,21.31,296.01,091019,,,A*43
$GPGGA,171143.750,4308.3223,N,07726.2963,W,1,06,1.31,140.8,M,-34.4,M,,*5E
$GPRMC,171144.000,A,4308.3233,N,07726.2987,W,24.41,298.04,091019,,,A*40
$GPGGA,171144.250,4308.3244,N,07726.3011,W,1,06,1.31,140.9,M,-34.4,M,,*51
$GPRMC,171144.500,A,4308.3254,N,07726.3033,W,25.99,300.53,091019,,,A*45
$GPGGA,171144.750,4308.3264,N,07726.3056,W,1,06,1.31,140.9,M,-34.4,M,,*55
$GPRMC,171145.000,A,4308.3275,N,07726.3079,W,27.23,301.89,091019,,,A*49
$GPGGA,171145.250,4308.3285,N,07726.3103,W,1,06,1.31,140.9,M,-34.4,M,,*5F
$GPRMC,171145.500,A,4308.3296,N,07726.3126,W,28.09,302.47,091019,,,A*4C
$GPGGA,171145.750,4308.3307,N,07726.3150,W,1,06,1.31,141.0,M,-34.4,M,,*5F
$GPRMC,171146.000,A,4308.3318,N,07726.3173,W,28.52,302.71,091019,,,A*46
$GPGGA,171146.250,4308.3329,N,07726.3197,W,1,06,1.31,141.0,M,-34.4,M,,*5E
$GPRMC,171146.500,A,4308.3340,N,07726.3220,W,28.48,302.38,091019,,,A*4D
$GPGGA,171146.750,4308.3350,N,07726.3243,W,1,06,1.31,141.0,M,-34.4,M,,*5F
$GPRMC,171147.000,A,4308.3360,N,07726.3265,W,28.29,301.88,091019,,,A*45
$GPGGA,171147.250,4308.3370,N,07726.3288,W,1,06,1.31,141.0,M,-34.4,M,,*5E
$GPRMC,171147.500,A,4308.3380,N,07726.3310,W,26.78,301.55,091019,,,A*47
$GPGGA,171147.750,4308.3389,N,07726.3331,W,1,06,1.31,140.9,M,-34.4,M,,*56
$GPRMC,171148.000,A,4308.3398,N,07726.3352,W,25.32,300.35,091019,,,A*48
$GPGGA,171148.250,4308.3407,N,07726.3373,W,1,06,1.31,140.8,M,-34.4,M,,*5A
$GPRMC,171148.500,A,4308.3416,N,07726.3393,W,24.87,301.13,091019,,,A*4B
$GPGGA,171148.750,4308.3425,N,07726.3413,W,1,06,1.31,140.8,M,-34.4,M,,*5E
$GPRMC,171149.000,A,4308.3434,N,07726.3433,W,24.32,302.25,091019,,,A*4A
$GPGGA,171149.250,4308.3443,N,07726.3452,W,1,06,1.31,141.0,M,-34.4,M,,*56
$GPRMC,171149.500,A,4308.3453,N,07726.3471,W,23.51,303.99,091019,,,A*4C
$GPGGA,171149.750,4308.3462,N,07726.3489,W,1,06,1.31,141.3,M,-34.4,M,,*55
$GPRMC,171150.000,A,4308.3473,N,07726.3508,W,22.70,308.40,091019,,,A*41
$GPGGA,171150.250,4308.3484,N,07726.3525,W,1,06,1.64,143.4,M,-34.4,M,,*52
$GPRMC,171150.500,A,4308.3494,N,07726.3541,W,21.59,310.84,091019,,,A*49
$GPGGA,171150.750,4308.3504,N,07726.3556,W,1,06,1.31,143.4,M,-34.4,M,,*5A
$GPRMC,171151.000,A,4308.3515,N,07726.3571,W,21.11,316.20,091019,,,A*42
$GPGGA,171151.250,4308.3526,N,07726.3585,W,1,06,1.31,143.5,M,-34.4,M,,*51
$GPRMC,171151.500,A,4308.3537,N,07726.3599,W,20.25,318.47,091019,,,A*48
$GPGGA,171151.750,4308.3548,N,07726.3612,W,1,06,1.64,143.7,M,-34.4,M,,*53
$GPRMC,171152.000,A,4308.3560,N,07726.3624,W,20.14,323.79,091019,,,A*4E
$GPGGA,171152.250,4308.3571,N,07726.3635,W,1,06,1.31,143.9,M,-34.4,M,,*54
$GPRMC,171152.500,A,4308.3583,N,07726.3646,W,19.94,328.19,091019,,,A*4D
$GPGGA,171152.750,4308.3595,N,07726.3656,W,1,06,1.31,143.8,M,-34.4,M,,*5F
$GPRMC,171153.000,A,4308.3607,N,07726.3665,W,19.95,331.29,091019,,,A*4D
$GPGGA,171153.250,4308.3620,N,07726.3675,W,1,06,1.31,143.8,M,-34.4,M,,*57
$GPRMC,171153.500,A,4308.3633,N,07726.3684,W,20.53,334.64,091019,,,A*4C
$GPGGA,171153.750,4308.3646,N,07726.3692,W,1,06,1.31,143.7,M,-34.4,M,,*54
$GPRMC,171154.000,A,4308.3660,N,07726.3700,W,21.07,337.83,091019,,,A*4F
$GPGGA,171154.250,4308.3674,N,07726.3708,W,1,06,1.31,143.5,M,-34.4,M,,*57
$GPRMC,171154.500,A,4308.3687,N,07726.3716,W,21.09,338.61,091019,,,A*49
$GPGGA,171154.750,4308.3701,N,07726.3724,W,1,06,1.31,143.2,M,-34.4,M,,*58
$GPRMC,171155.000,A,4308.3715,N,07726.3730,W,21.09,341.46,091019,,,A*48
$GPGGA,171155.250,4308.3729,N,07726.3736,W,1,06,1.31,142.9,M,-34.4,M,,*5F
$GPRMC,171155.500,A,4308.3743,N,07726.3742,W,21.16,344.07,091019,,,A*45
$GPGGA,171155.750,4308.3758,N,07726.3747,W,1,06,1.31,142.7,M,-34.4,M,,*54
$GPRMC,171156.000,A,4308.3774,N,07726.3751,W,21.74,348.28,091019,,,A*40
$GPGGA,171156.250,4308.3789,N,07726.3755,W,1,06,1.64,142.6,M,-34.4,M,,*5C
$GPRMC,171156.500,A,4308.3805,N,07726.3758,W,22.28,350.77,091019,,,A*4C
$GPGGA,171156.750,4308.3821,N,07726.3761,W,1,06,1.64,142.7,M,-34.4,M,,*52
$GPRMC,171157.000,A,4308.3838,N,07726.3761,W,23.06,354.77,091019,,,A*45
$GPGGA,171157.250,4308.3857,N,07726.3759,W,1,06,1.64,142.7,M,-34.4,M,,*5C
$GPRMC,171157.500,A,4308.3874,N,07726.3758,W,24.18,0.07,091019,,,A*4F
$GPGGA,171157.750,4308.3892,N,07726.3756,W,1,06,1.64,142.8,M,-34.4,M,,*50
$GPRMC,171158.000,A,4308.3911,N,07726.3754,W,25.37,3.86,091019,,,A*4D
$GPGGA,171158.250,4308.3929,N,07726.3751,W,1,06,1.31,142.8,M,-34.4,M,,*5C
$GPRMC,171158.500,A,4308.3947,N,07726.3748,W,26.08,6.52,091019,,,A*45
$GPGGA,171158.750,4308.3965,N,07726.3744,W,1,06,1.31,142.9,M,-34.4,M,,*54
$GPRMC,171159.000,A,4308.3984,N,07726.3739,W,26.50,9.39,091019,,,A*47
$GPGGA,171159.250,4308.4002,N,07726.3734,W,1,06,1.31,143.0,M,-34.4,M,,*50
$GPRMC,171159.500,A,4308.4021,N,07726.3729,W,27.21,10.61,091019,,,A*70
$GPGGA,171159.750,4308.4041,N,07726.3724,W,1,06,1.31,143.1,M,-34.4,M,,*52
$GPRMC,171200.000,A,4308.4060,N,07726.3718,W,27.45,11.61,091019,,,A*7E
$GPGGA,171200.250,4308.4079,N,07726.3713,W,1,06,1.31,143.2,M,-34.4,M,,*54
$GPRMC,171200.500,A,4308.4097,N,07726.3708,W,27.01,10.82,091019,,,A*7E
$GPGGA,171200.750,4308.4116,N,07726.3703,W,1,06,1.31,143.4,M,-34.4,M,,*5E
$GPRMC,171201.000,A,4308.4134,N,07726.3698,W,26.93,10.85,091019,,,A*77
$GPGGA,171201.250,4308.4153,N,07726.3693,W,1,06,1.31,143.5,M,-34.4,M,,*52
$GPRMC,171201.500,A,4308.4171,N,07726.3688,W,26.46,10.50,091019,,,A*72
$GPGGA,171201.750,4308.4189,N,07726.3684,W,1,06,1.31,143.6,M,-34.4,M,,*55
$GPRMC,171202.000,A,4308.4206,N,07726.3679,W,25.73,9.26,091019,,,A*45
$GPGGA,171202.250,4308.4224,N,07726.3675,W,1,06,1.31,143.7,M,-34.4,M,,*58
$GPRMC,171202.500,A,4308.4241,N,07726.3672,W,25.12,8.38,091019,,,A*41
$GPGGA,171202.750,4308.4258,N,07726.3668,W,1,06,1.64,143.8,M,-34.4,M,,*55
$GPRMC,171203.000,A,4308.4275,N,07726.3665,W,24.55,7.78,091019,,,A*4D
$GPGGA,171203.250,4308.4291,N,07726.3662,W,1,06,1.64,143.9,M,-34.4,M,,*5F
$GPRMC,171203.500,A,4308.4307,N,07726.3658,W,23.98,7.40,091019,,,A*4F
$GPGGA,171203.750,4308.4323,N,07726.3655,W,1,06,1.64,144.0,M,-34.4,M,,*58
$GPRMC,171204.000,A,4308.4339,N,07726.3651,W,23.32,7.29,091019,,,A*46
$GPGGA,171204.250,4308.4354,N,07726.3648,W,1,06,1.64,144.0,M,-34.4,M,,*56
$GPRMC,171204.500,A,4308.4370,N,07726.3644,W,22.93,7.80,091019,,,A*43
$GPGGA,171204.750,4308.4385,N,07726.3640,W,1,06,1.64,144.2,M,-34.4,M,,*55
$GPRMC,171205.000,A,4308.4399,N,07726.3636,W,22.21,8.85,091019,,,A*46
$GPGGA,171205.250,4308.4414,N,07726.3632,W,1,06,1.64,144.3,M,-34.4,M,,*5A
$GPRMC,171205.500,A,4308.4428,N,07726.3628,W,21.48,9.46,091019,,,A*43
$GPGGA,171205.750,4308.4441,N,07726.3624,W,1,06,1.64,144.4,M,-34.4,M,,*5F
$GPRMC,171206.000,A,4308.4455,N,07726.3620,W,20.40,9.06,091019,,,A*4A
$GPGGA,171206.250,4308.4468,N,07726.3617,W,1,06,1.64,144.6,M,-34.4,M,,*50
$GPRMC,171206.500,A,4308.4480,N,07726.3614,W,19.11,8.22,091019,,,A*49
$GPGGA,171206.750,4308.4492,N,07726.3610,W,1,06,1.64,144.7,M,-34.4,M,,*56
$GPRMC,171207.000,A,4308.4502,N,07726.3607,W,17.25,7.57,091019,,,A*40
$GPGGA,171207.250,4308.4512,N,07726.3605,W,1,06,1.64,144.8,M,-34.4,M,,*50
$GPRMC,171207.500,A,4308.4521,N,07726.3602,W,15.41,7.14,091019,,,A*46
$GPGGA,171207.750,4308.4529,N,07726.3600,W,1,05,1.70,145.0,M,-34.4,M,,*57
$GPRMC,171208.000,A,4308.4536,N,07726.3598,W,12.88,5.08,091019,,,A*47
$GPGGA,171208.250,4308.4542,N,07726.3597,W,1,05,1.71,145.1,M,-34.4,M,,*5D
$GPRMC,171208.500,A,4308.4548,N,07726.3597,W,10.75,1.32,091019,,,A*49
$GPGGA,171208.750,4308.4553,N,07726.3596,W,1,05,1.71,145.1,M,-34.4,M,,*59
$GPRMC,171209.000,A,4308.4557,N,07726.3596,W,8.74,356.70,091019,,,A*7D
$GPGGA,171209.250,4308.4561,N,07726.3595,W,1,05,1.71,145.2,M,-34.4,M,,*5C
$GPRMC,171209.500,A,4308.4566,N,07726.3595,W,7.67,354.81,091019,,,A*78
$GPGGA,171209.750,4308.4569,N,07726.3594,W,1,06,1.64,145.4,M,-34.4,M,,*51
$GPRMC,171210.000,A,4308.4573,N,07726.3595,W,7.18,353.78,091019,,,A*78
$GPGGA,171210.250,4308.4579,N,07726.3597,W,1,06,1.64,145.4,M,-34.4,M,,*5E
$GPRMC,171210.500,A,4308.4584,N,07726.3599,W,8.15,345.35,091019,,,A*75
$GPGGA,171210.750,4308.4589,N,07726.3602,W,1,06,1.64,145.6,M,-34.4,M,,*59
$GPRMC,171211.000,A,4308.4595,N,07726.3607,W,9.87,334.70,091019,,,A*78
$GPGGA,171211.250,4308.4601,N,07726.3614,W,1,06,1.31,146.3,M,-34.4,M,,*5F
$GPRMC,171211.500,A,4308.4606,N,07726.3622,W,10.92,321.71,091019,,,A*4A
$GPGGA,171211.750,4308.4610,N,07726.3633,W,1,06,1.31,146.1,M,-34.4,M,,*5D
$GPRMC,171212.000,A,4308.4614,N,07726.3644,W,12.62,303.22,091019,,,A*44
$GPGGA,171212.250,4308.4619,N,07726.3656,W,1,06,1.31,146.1,M,-34.4,M,,*51
$GPRMC,171212.500,A,4308.4624,N,07726.3669,W,13.92,299.64,091019,,,A*43
$GPGGA,171212.750,4308.4629,N,07726.3682,W,1,06,1.31,145.9,M,-34.4,M,,*55
$GPRMC,171213.000,A,4308.4632,N,07726.3696,W,14.90,293.19,091019,,,A*45
$GPGGA,171213.250,4308.4635,N,07726.3713,W,1,06,1.31,145.7,M,-34.4,M,,*5B
$GPRMC,171213.500,A,4308.4638,N,07726.3729,W,16.52,287.07,091019,,,A*49
$GPGGA,171213.750,4308.4640,N,07726.3748,W,1,06,1.31,145.7,M,-34.4,M,,*52
$GPRMC,171214.000,A,4308.4642,N,07726.3766,W,18.34,280.99,091019,,,A*43
$GPGGA,171214.250,4308.4643,N,07726.3786,W,1,06,1.31,145.7,M,-34.4,M,,*51
$GPRMC,171214.500,A,4308.4644,N,07726.3806,W,19.66,276.83,091019,,,A*4D
$GPGGA,171214.750,4308.4645,N,07726.3826,W,1,06,1.31,145.6,M,-34.4,M,,*56
$GPRMC,171215.000,A,4308.4645,N,07726.3847,W,20.57,274.32,091019,,,A*4D
$GPGGA,171215.250,4308.4646,N,07726.3868,W,1,06,1.31,145.5,M,-34.4,M,,*58
$GPRMC,171215.500,A,4308.4647,N,07726.3890,W,21.58,273.75,091019,,,A*4A
$GPGGA,171215.750,4308.4647,N,07726.3912,W,1,06,1.31,145.4,M,-34.4,M,,*51
$GPRMC,171216.000,A,4308.4648,N,07726.3935,W,22.65,273.38,091019,,,A*49
$GPGGA,171216.250,4308.4648,N,07726.3958,W,1,06,1.31,145.3,M,-34.4,M,,*51
$GPRMC,171216.500,A,4308.4650,N,07726.3981,W,23.58,273.29,091019,,,A*45
$GPGGA,171216.750,4308.4651,N,07726.4006,W,1,06,1.31,145.2,M,-34.4,M,,*58
$GPRMC,171217.000,A,4308.4652,N,07726.4030,W,24.26,273.44,091019,,,A*42
$GPGGA,171217.250,4308.4653,N,07726.4054,W,1,06,1.31,144.9,M,-34.4,M,,*53
$GPRMC,171217.500,A,4308.4654,N,07726.4079,W,24.60,274.19,091019,,,A*41
$GPGGA,171217.750,4308.4656,N,07726.4103,W,1,06,1.31,144.8,M,-34.4,M,,*51
$GPRMC,171218.000,A,4308.4657,N,07726.4126,W,24.35,275.29,091019,,,A*41
$GPGGA,171218.250,4308.4659,N,07726.4149,W,1,06,1.31,144.6,M,-34.4,M,,*54
$GPRMC,171218.500,A,4308.4661,N,07726.4171,W,23.64,276.72,091019,,,A*4D
$GPGGA,171218.750,4308.4662,N,07726.4193,W,1,06,1.31,144.4,M,-34.4,M,,*5C
$GPRMC,171219.000,A,4308.4664,N,07726.4213,W,22.21,278.15,091019,,,A*44
$GPGGA,171219.250,4308.4666,N,07726.4233,W,1,06,1.31,144.3,M,-34.4,M,,*52
$GPRMC,171219.500,A,4308.4668,N,07726.4252,W,20.90,278.94,091019,,,A*49
$GPGGA,171219.750,4308.4670,N,07726.4271,W,1,06,1.31,144.2,M,-34.4,M,,*57
$GPRMC,171220.000,A,4308.4672,N,07726.4287,W,18.59,280.25,091019,,,A*46
$GPGGA,171220.250,4308.4673,N,07726.4301,W,1,06,1.31,144.2,M,-34.4,M,,*5D
$GPRMC,171220.500,A,4308.4675,N,07726.4315,W,15.73,280.52,091019,,,A*4B
$GPGGA,171220.750,4308.4676,N,07726.4327,W,1,06,1.31,144.2,M,-34.4,M,,*59
$GPRMC,171221.000,A,4308.4678,N,07726.4338,W,12.27,282.23,091019,,,A*4F
$GPGGA,171221.250,4308.4680,N,07726.4348,W,1,06,1.31,144.2,M,-34.4,M,,*5D
$GPRMC,171221.500,A,4308.4682,N,07726.4358,W,11.08,286.68,091019,,,A*4C
$GPGGA,171221.750,4308.4685,N,07726.4366,W,1,06,1.31,144.3,M,-34.4,M,,*50
$GPRMC,171222.000,A,4308.4687,N,07726.4373,W,9.41,294.85,091019,,,A*72
$GPGGA,171222.250,4308.4689,N,07726.4380,W,1,06,1.31,144.1,M,-34.4,M,,*50
$GPRMC,171222.500,A,4308.4692,N,07726.4385,W,8.21,298.91,091019,,,A*74
$GPGGA,171222.750,4308.4694,N,07726.4390,W,1,06,1.31,144.2,M,-34.4,M,,*5B
$GPRMC,171223.000,A,4308.4696,N,07726.4393,W,6.77,303.33,091019,,,A*75
$GPGGA,171223.250,4308.4698,N,07726.4396,W,1,06,1.31,144.1,M,-34.4,M,,*56
$GPRMC,171223.500,A,4308.4699,N,07726.4398,W,5.53,310.94,091019,,,A*7E
$GPGGA,171223.750,4308.4701,N,07726.4400,W,1,06,1.31,143.9,M,-34.4,M,,*55
$GPRMC,171224.000,A,4308.4702,N,07726.4401,W,4.40,318.81,091019,,,A*77
$GPGGA,171224.250,4308.4702,N,07726.4400,W,1,06,1.31,143.7,M,-34.4,M,,*5A
$GPRMC,171224.500,A,4308.4703,N,07726.4401,W,3.48,322.07,091019,,,A*7B
$GPGGA,171224.750,4308.4704,N,07726.4400,W,1,06,1.31,143.4,M,-34.4,M,,*5A
$GPRMC,171225.000,A,4308.4704,N,07726.4401,W,2.96,323.21,091019,,,A*7F
$GPGGA,171225.250,4308.4704,N,07726.4401,W,1,06,1.31,143.1,M,-34.4,M,,*5A
$GPRMC,171225.500,A,4308.4704,N,07726.4401,W,2.47,323.21,091019,,,A*76
$GPGGA,171225.750,4308.4704,N,07726.4401,W,1,06,1.31,142.8,M,-34.4,M,,*57
$GPRMC,171226.000,A,4308.4704,N,07726.4401,W,1.99,323.21,091019,,,A*70
$GPGGA,171226.250,4308.4703,N,07726.4400,W,1,07,1.11,142.6,M,-34.4,M,,*5A
$GPRMC,171226.500,A,4308.4701,N,07726.4397,W,0.75,323.21,091019,,,A*7B
$GPGGA,171226.750,4308.4701,N,07726.4397,W,1,07,1.11,142.5,M,-34.4,M,,*57
$GPRMC,171227.000,A,4308.4701,N,07726.4396,W,0.34,323.21,091019,,,A*7B
$GPGGA,171227.250,4308.4700,N,07726.4396,W,1,07,1.11,142.5,M,-34.4,M,,*53
$GPRMC,171227.500,A,4308.4700,N,07726.4396,W,0.30,323.21,091019,,,A*7B
$GPGGA,171227.750,4308.4702,N,07726.4400,W,1,07,1.11,142.3,M,-34.4,M,,*5A
$GPRMC,171228.000,A,4308.4702,N,07726.4402,W,2.26,323.21,091019,,,A*7C
$GPGGA,171228.250,4308.4702,N,07726.4405,W,1,07,1.11,142.3,M,-34.4,M,,*55
$GPRMC,171228.500,A,4308.4703,N,07726.4409,W,4.21,271.51,091019,,,A*73
$GPGGA,171228.750,4308.4704,N,07726.4414,W,1,07,1.11,142.2,M,-34.4,M,,*57
$GPRMC,171229.000,A,4308.4704,N,07726.4419,W,5.96,269.35,091019,,,A*77
$GPGGA,171229.250,4308.4704,N,07726.4425,W,1,07,1.11,142.2,M,-34.4,M,,*51
$GPRMC,171229.500,A,4308.4704,N,07726.4432,W,6.49,269.79,091019,,,A*72
$GPGGA,171229.750,4308.4704,N,07726.4439,W,1,07,1.11,142.1,M,-34.4,M,,*5A
$GPRMC,171230.000,A,4308.4703,N,07726.4447,W,7.67,268.34,091019,,,A*7F
$GPGGA,171230.250,4308.4703,N,07726.4456,W,1,07,1.11,142.2,M,-34.4,M,,*5A
$GPRMC,171230.500,A,4308.4703,N,07726.4466,W,9.17,267.05,091019,,,A*7D
$GPGGA,171230.750,4308.4703,N,07726.4477,W,1,07,1.11,142.2,M,-34.4,M,,*5C
$GPRMC,171231.000,A,4308.4703,N,07726.4490,W,11.04,266.36,091019,,,A*4A
$GPGGA,171231.250,4308.4704,N,07726.4506,W,1,07,1.11,142.2,M,-34.4,M,,*58
$GPRMC,171231.500,A,4308.4705,N,07726.4521,W,13.67,268.51,091019,,,A*4A
$GPGGA,171231.750,4308.4709,N,07726.4542,W,1,07,1.11,142.2,M,-34.4,M,,*50
$GPRMC,171232.000,A,4308.4710,N,07726.4560,W,16.56,274.17,091019,,,A*45
$GPGGA,171232.250,4308.4710,N,07726.4578,W,1,07,1.11,142.1,M,-34.4,M,,*54
$GPRMC,171232.500,A,4308.4711,N,07726.4597,W,18.41,273.91,091019,,,A*48
$GPGGA,171232.750,4308.4711,N,07726.4618,W,1,07,1.11,142.1,M,-34.4,M,,*55
$GPRMC,171233.000,A,4308.4712,N,07726.4638,W,20.41,272.34,091019,,,A*4C
$GPGGA,171233.250,4308.4712,N,07726.4660,W,1,07,1.11,142.1,M,-34.4,M,,*5D
$GPRMC,171233.500,A,4308.4713,N,07726.4682,W,21.65,270.75,091019,,,A*49
$GPGGA,171233.750,4308.4712,N,07726.4704,W,1,07,1.11,142.1,M,-34.4,M,,*5B
$GPRMC,171234.000,A,4308.4712,N,07726.4727,W,22.56,268.47,091019,,,A*4F
$GPGGA,171234.250,4308.4712,N,07726.4750,W,1,07,1.11,142.0,M,-34.4,M,,*59
$GPRMC,171234.500,A,4308.4711,N,07726.4773,W,23.17,266.43,091019,,,A*46
$GPGGA,171234.750,4308.4711,N,07726.4798,W,1,07,1.11,142.0,M,-34.4,M,,*5B
$GPRMC,171235.000,A,4308.4711,N,07726.4825,W,24.38,265.50,091019,,,A*45
$GPGGA,171235.250,4308.4712,N,07726.4852,W,1,07,1.11,142.0,M,-34.4,M,,*55
$GPRMC,171235.500,A,4308.4713,N,07726.4879,W,25.28,266.19,091019,,,A*45
$GPGGA,171235.750,4308.4713,N,07726.4906,W,1,07,1.11,142.0,M,-34.4,M,,*51
$GPRMC,171236.000,A,4308.4713,N,07726.4933,W,26.43,266.64,091019,,,A*48
$GPGGA,171236.250,4308.4714,N,07726.4962,W,1,07,1.11,142.1,M,-34.4,M,,*53
$GPRMC,171236.500,A,4308.4719,N,07726.4998,W,28.95,270.06,091019,,,A*40
$GPGGA,171236.750,4308.4720,N,07726.5029,W,1,07,1.11,142.1,M,-34.4,M,,*56
$GPRMC,171237.000,A,4308.4722,N,07726.5061,W,29.97,270.79,091019,,,A*49
$GPGGA,171237.250,4308.4724,N,07726.5094,W,1,07,1.11,142.3,M,-34.4,M,,*52
$GPRMC,171237.500,A,4308.4726,N,07726.5125,W,31.43,271.14,091019,,,A*43
$GPGGA,171237.750,4308.4728,N,07726.5159,W,1,07,1.11,142.4,M,-34.4,M,,*5C
$GPRMC,171238.000,A,4308.4730,N,07726.5194,W,32.77,271.73,091019,,,A*41
$GPGGA,171238.250,4308.4733,N,07726.5229,W,1,07,1.11,142.6,M,-34.4,M,,*5A
$GPRMC,171238.500,A,4308.4734,N,07726.5262,W,33.71,271.69,091019,,,A*46
$GPGGA,171238.750,4308.4735,N,07726.5296,W,1,07,1.11,142.8,M,-34.4,M,,*53
$GPRMC,171239.000,A,4308.4736,N,07726.5330,W,34.69,271.44,091019,,,A*47
$GPGGA,171239.250,4308.4738,N,07726.5366,W,1,07,1.11,143.0,M,-34.4,M,,*5D
$GPRMC,171239.500,A,4308.4739,N,07726.5401,W,35.54,271.37,091019,,,A*43
$GPGGA,171239.750,4308.4740,N,07726.5436,W,1,07,1.11,143.2,M,-34.4,M,,*57
$GPRMC,171240.000,A,4308.4742,N,07726.5473,W,36.33,271.21,091019,,,A*44
$GPGGA,171240.250,4308.4743,N,07726.5511,W,1,07,1.11,143.3,M,-34.4,M,,*5A
$GPRMC,171240.500,A,4308.4745,N,07726.5549,W,37.55,271.68,091019,,,A*42
$GPGGA,171240.750,4308.4747,N,07726.5589,W,1,07,1.11,143.5,M,-34.4,M,,*5C
$GPRMC,171241.000,A,4308.4749,N,07726.5628,W,38.82,271.73,091019,,,A*41
$GPGGA,171241.250,4308.4751,N,07726.5667,W,1,07,1.11,143.7,M,-34.4,M,,*5E
$GPRMC,171241.500,A,4308.4752,N,07726.5705,W,39.24,271.68,091019,,,A*47
$GPGGA,171241.750,4308.4753,N,07726.5744,W,1,07,1.11,143.9,M,-34.4,M,,*57
$GPRMC,171242.000,A,4308.4754,N,07726.5783,W,39.82,271.27,091019,,,A*4E
$GPGGA,171242.250,4308.4755,N,07726.5822,W,1,07,1.11,144.1,M,-34.4,M,,*57
$GPRMC,171242.500,A,4308.4756,N,07726.5860,W,39.88,270.83,091019,,,A*4E
$GPGGA,171242.750,4308.4756,N,07726.5899,W,1,07,1.11,144.4,M,-34.4,M,,*54
$GPRMC,171243.000,A,4308.4757,N,07726.5938,W,39.98,270.37,091019,,,A*49
$GPGGA,171243.250,4308.4758,N,07726.5979,W,1,07,1.11,144.6,M,-34.4,M,,*53
$GPRMC,171243.500,A,4308.4759,N,07726.6019,W,40.60,270.28,091019,,,A*4C
$GPGGA,171243.750,4308.4760,N,07726.6060,W,1,07,1.11,144.7,M,-34.4,M,,*5E
$GPRMC,171244.000,A,4308.4761,N,07726.6101,W,40.79,270.03,091019,,,A*4C
$GPGGA,171244.250,4308.4762,N,07726.6143,W,1,07,1.11,144.9,M,-34.4,M,,*50
$GPRMC,171244.500,A,4308.4762,N,07726.6184,W,41.34,269.69,091019,,,A*4B
$GPGGA,171244.750,4308.4763,N,07726.6227,W,1,07,1.11,145.2,M,-34.4,M,,*5F
$GPRMC,171245.000,A,4308.4764,N,07726.6270,W,42.61,268.62,091019,,,A*48
$GPGGA,171245.250,4308.4765,N,07726.6314,W,1,07,1.11,145.8,M,-34.4,M,,*56
$GPRMC,171245.500,A,4308.4766,N,07726.6358,W,43.14,268.28,091019,,,A*49
$GPGGA,171245.750,4308.4767,N,07726.6403,W,1,07,1.11,146.8,M,-34.4,M,,*53
$GPRMC,171246.000,A,4308.4768,N,07726.6447,W,43.70,267.56,091019,,,A*4C
$GPGGA,171246.250,4308.4768,N,07726.6492,W,1,07,1.11,147.6,M,-34.4,M,,*5D
$GPRMC,171246.500,A,4308.4768,N,07726.6536,W,44.37,267.05,091019,,,A*4C
$GPGGA,171246.750,4308.4768,N,07726.6581,W,1,07,1.11,148.1,M,-34.4,M,,*53
$GPRMC,171247.000,A,4308.4768,N,07726.6626,W,44.72,266.35,091019,,,A*49
$GPGGA,171247.250,4308.4767,N,07726.6671,W,1,07,1.11,148.5,M,-34.4,M,,*50
$GPRMC,171247.500,A,4308.4766,N,07726.6715,W,45.10,266.31,091019,,,A*42
$GPGGA,171247.750,4308.4764,N,07726.6760,W,1,07,1.11,149.0,M,-34.4,M,,*53
$GPRMC,171248.000,A,4308.4763,N,07726.6804,W,45.24,266.04,091019,,,A*43
$GPGGA,171248.250,4308.4761,N,07726.6848,W,1,07,1.20,149.6,M,-34.4,M,,*5D
$GPRMC,171248.500,A,4308.4759,N,07726.6892,W,45.40,265.89,091019,,,A*44
$GPGGA,171248.750,4308.4757,N,07726.6936,W,1,07,1.11,150.2,M,-34.4,M,,*5B
$GPRMC,171249.000,A,4308.4755,N,07726.6980,W,45.52,265.48,091019,,,A*40
$GPGGA,171249.250,4308.4752,N,07726.7024,W,1,07,1.11,150.9,M,-34.4,M,,*5A
$GPRMC,171249.500,A,4308.4750,N,07726.7067,W,45.89,265.13,091019,,,A*49
$GPGGA,171249.750,4308.4747,N,07726.7111,W,1,07,1.11,151.6,M,-34.4,M,,*52
$GPRMC,171250.000,A,4308.4744,N,07726.7154,W,45.58,264.48,091019,,,A*43
$GPGGA,171250.250,4308.4742,N,07726.7197,W,1,07,1.20,152.4,M,-34.4,M,,*57
$GPRMC,171250.500,A,4308.4739,N,07726.7240,W,45.23,264.07,091019,,,A*4D
$GPGGA,171250.750,4308.4735,N,07726.7282,W,1,07,1.11,153.2,M,-34.4,M,,*50
$GPRMC,171251.000,A,4308.4732,N,07726.7325,W,44.87,263.92,091019,,,A*44
$GPGGA,171251.250,4308.4729,N,07726.7367,W,1,07,1.11,153.9,M,-34.4,M,,*58
$GPRMC,171251.500,A,4308.4726,N,07726.7408,W,44.31,263.97,091019,,,A*44
$GPGGA,171251.750,4308.4723,N,07726.7449,W,1,07,1.11,154.3,M,-34.4,M,,*51
$GPRMC,171252.000,A,4308.4720,N,07726.7491,W,43.94,264.04,091019,,,A*41
$GPGGA,171252.250,4308.4718,N,07726.7532,W,1,07,1.11,155.0,M,-34.4,M,,*50
$GPRMC,171252.500,A,4308.4716,N,07726.7573,W,43.57,264.54,091019,,,A*46
$GPGGA,171252.750,4308.4713,N,07726.7614,W,1,07,1.11,155.5,M,-34.4,M,,*5C
$GPRMC,171253.000,A,4308.4711,N,07726.7655,W,43.03,265.73,091019,,,A*47
$GPGGA,171253.250,4308.4709,N,07726.7697,W,1,07,1.11,155.6,M,-34.4,M,,*5B
$GPRMC,171253.500,A,4308.4707,N,07726.7737,W,42.73,266.09,091019,,,A*48
$GPGGA,171253.750,4308.4705,N,07726.7779,W,1,07,1.11,155.7,M,-34.4,M,,*52
$GPRMC,171254.000,A,4308.4703,N,07726.7820,W,42.64,266.69,091019,,,A*47
$GPGGA,171254.250,4308.4700,N,07726.7859,W,1,07,1.11,155.8,M,-34.4,M,,*57
$GPRMC,171254.500,A,4308.4697,N,07726.7899,W,42.24,265.99,091019,,,A*44
$GPGGA,171254.750,4308.4694,N,07726.7939,W,1,07,1.11,155.9,M,-34.4,M,,*58
$GPRMC,171255.000,A,4308.4691,N,07726.7978,W,41.96,265.80,091019,,,A*4A
$GPGGA,171255.250,4308.4689,N,07726.8018,W,1,07,1.11,156.0,M,-34.4,M,,*5F
$GPRMC,171255.500,A,4308.4687,N,07726.8057,W,41.92,266.11,091019,,,A*4C
$GPGGA,171255.750,4308.4684,N,07726.8097,W,1,07,1.11,156.0,M,-34.4,M,,*50
$GPRMC,171256.000,A,4308.4683,N,07726.8136,W,41.70,266.45,091019,,,A*45
$GPGGA,171256.250,4308.4681,N,07726.8176,W,1,07,1.11,156.0,M,-34.4,M,,*5D
$GPRMC,171256.500,A,4308.4679,N,07726.8216,W,41.24,266.29,091019,,,A*4F
$GPGGA,171256.750,4308.4678,N,07726.8254,W,1,07,1.11,155.9,M,-34.4,M,,*57
$GPRMC,171257.000,A,4308.4675,N,07726.8293,W,40.17,266.04,091019,,,A*44
$GPGGA,171257.250,4308.4673,N,07726.8332,W,1,07,1.11,156.1,M,-34.4,M,,*52
$GPRMC,171257.500,A,4308.4671,N,07726.8371,W,39.56,265.02,091019,,,A*46
$GPGGA,171257.750,4308.4669,N,07726.8409,W,1,07,1.11,156.2,M,-34.4,M,,*50
$GPRMC,171258.000,A,4308.4667,N,07726.8447,W,39.11,264.41,091019,,,A*4C
$GPGGA,171258.250,4308.4664,N,07726.8485,W,1,07,1.20,156.4,M,-34.4,M,,*57
$GPRMC,171258.500,A,4308.4662,N,07726.8524,W,38.69,264.31,091019,,,A*41
$GPGGA,171258.750,4308.4660,N,07726.8562,W,1,07,1.11,156.7,M,-34.4,M,,*5F
$GPRMC,171259.000,A,4308.4658,N,07726.8600,W,38.19,264.30,091019,,,A*4F
$GPGGA,171259.250,4308.4656,N,07726.8639,W,1,07,1.20,157.0,M,-34.4,M,,*57
$GPRMC,171259.500,A,4308.4654,N,07726.8677,W,38.12,264.73,091019,,,A*4A
$GPGGA,171259.750,4308.4651,N,07726.8714,W,1,07,1.11,157.4,M,-34.4,M,,*5D
$GPRMC,171300.000,A,4308.4649,N,07726.8752,W,37.74,264.48,091019,,,A*4F
$GPGGA,171300.250,4308.4647,N,07726.8789,W,1,07,1.20,157.7,M,-34.4,M,,*57
$GPRMC,171300.500,A,4308.4645,N,07726.8825,W,37.63,264.60,091019,,,A*45
$GPGGA,171300.750,4308.4642,N,07726.8861,W,1,07,1.11,158.0,M,-34.4,M,,*54
$GPRMC,171301.000,A,4308.4640,N,07726.8897,W,37.36,264.91,091019,,,A*43
$GPGGA,171301.250,4308.4638,N,07726.8933,W,1,07,1.20,158.3,M,-34.4,M,,*5A
$GPRMC,171301.500,A,4308.4637,N,07726.8969,W,37.47,265.19,091019,,,A*41
$GPGGA,171301.750,4308.4635,N,07726.9006,W,1,07,1.20,158.5,M,-34.4,M,,*5A
$GPRMC,171302.000,A,4308.4633,N,07726.9042,W,37.48,265.38,091019,,,A*4E
$GPGGA,171302.250,4308.4632,N,07726.9078,W,1,07,1.20,158.6,M,-34.4,M,,*51
$GPRMC,171302.500,A,4308.4630,N,07726.9114,W,37.44,265.16,091019,,,A*4A
$GPGGA,171302.750,4308.4628,N,07726.9150,W,1,07,1.11,158.8,M,-34.4,M,,*58
$GPRMC,171303.000,A,4308.4626,N,07726.9185,W,37.37,265.12,091019,,,A*41
$GPGGA,171303.250,4308.4624,N,07726.9220,W,1,07,1.20,158.9,M,-34.4,M,,*57
$GPRMC,171303.500,A,4308.4623,N,07726.9254,W,35.61,265.39,091019,,,A*46
$GPGGA,171303.750,4308.4621,N,07726.9289,W,1,07,1.11,159.1,M,-34.4,M,,*5F
$GPRMC,171304.000,A,4308.4619,N,07726.9323,W,35.03,265.31,091019,,,A*40
$GPGGA,171304.250,4308.4617,N,07726.9356,W,1,07,1.11,159.3,M,-34.4,M,,*59
$GPRMC,171304.500,A,4308.4616,N,07726.9389,W,34.49,265.23,091019,,,A*46
$GPGGA,171304.750,4308.4614,N,07726.9422,W,1,07,1.11,159.4,M,-34.4,M,,*5C
$GPRMC,171305.000,A,4308.4613,N,07726.9455,W,33.56,265.41,091019,,,A*4C
$GPGGA,171305.250,4308.4611,N,07726.9488,W,1,07,1.20,159.6,M,-34.4,M,,*5D
$GPRMC,171305.500,A,4308.4610,N,07726.9520,W,33.31,265.33,091019,,,A*4D
$GPGGA,171305.750,4308.4608,N,07726.9551,W,1,07,1.11,159.8,M,-34.4,M,,*59
$GPRMC,171306.000,A,4308.4606,N,07726.9583,W,32.89,265.02,091019,,,A*45
$GPGGA,171306.250,4308.4605,N,07726.9614,W,1,07,1.20,160.0,M,-34.4,M,,*50
$GPRMC,171306.500,A,4308.4603,N,07726.9645,W,32.66,264.86,091019,,,A*40
$GPGGA,171306.750,4308.4601,N,07726.9676,W,1,07,1.11,160.2,M,-34.4,M,,*55
$GPRMC,171307.000,A,4308.4600,N,07726.9706,W,31.83,264.24,091019,,,A*41
$GPGGA,171307.250,4308.4598,N,07726.9737,W,1,07,1.20,160.5,M,-34.4,M,,*53
$GPRMC,171307.500,A,4308.4596,N,07726.9768,W,32.06,264.34,091019,,,A*4F
$GPGGA,171307.750,4308.4595,N,07726.9799,W,1,07,1.20,160.8,M,-34.4,M,,*52
$GPRMC,171308.000,A,4308.4593,N,07726.9830,W,32.07,264.84,091019,,,A*48
$GPGGA,171308.250,4308.4592,N,07726.9861,W,1,07,1.20,161.1,M,-34.4,M,,*5F
$GPRMC,171308.500,A,4308.4590,N,07726.9891,W,32.04,265.24,091019,,,A*4D
$GPGGA,171308.750,4308.4589,N,07726.9922,W,1,07,1.20,161.4,M,-34.4,M,,*53
$GPRMC,171309.000,A,4308.4587,N,07726.9952,W,31.90,265.04,091019,,,A*4D
$GPGGA,171309.250,4308.4586,N,07726.9982,W,1,07,1.20,161.6,M,-34.4,M,,*50
$GPRMC,171309.500,A,4308.4585,N,07727.0012,W,31.51,265.28,091019,,,A*4C
$GPGGA,171309.750,4308.4583,N,07727.0042,W,1,07,1.11,161.9,M,-34.4,M,,*50
$GPRMC,171310.000,A,4308.4582,N,07727.0071,W,31.39,265.38,091019,,,A*4C
$GPGGA,171310.250,4308.4581,N,07727.0101,W,1,07,1.20,162.2,M,-34.4,M,,*53
$GPRMC,171310.500,A,4308.4579,N,07727.0131,W,31.22,265.58,091019,,,A*44
$GPGGA,171310.750,4308.4578,N,07727.0161,W,1,07,1.20,162.4,M,-34.4,M,,*50
$GPRMC,171311.000,A,4308.4577,N,07727.0190,W,31.10,265.65,091019,,,A*4A
$GPGGA,171311.250,4308.4577,N,07727.0220,W,1,07,1.20,162.6,M,-34.4,M,,*5F
$GPRMC,171311.500,A,4308.4576,N,07727.0250,W,30.82,266.39,091019,,,A*41
$GPGGA,171311.750,4308.4575,N,07727.0280,W,1,07,1.11,162.8,M,-34.4,M,,*5E
$GPRMC,171312.000,A,4308.4574,N,07727.0310,W,31.30,266.46,091019,,,A*40
$GPGGA,171312.250,4308.4573,N,07727.0341,W,1,07,1.20,163.0,M,-34.4,M,,*59
$GPRMC,171312.500,A,4308.4572,N,07727.0371,W,31.42,266.68,091019,,,A*4D
$GPGGA,171312.750,4308.4572,N,07727.0401,W,1,07,1.11,163.3,M,-34.4,M,,*5F
$GPRMC,171313.000,A,4308.4571,N,07727.0431,W,31.86,267.72,091019,,,A*4B
$GPGGA,171313.250,4308.4571,N,07727.0463,W,1,07,1.20,163.5,M,-34.4,M,,*58
$GPRMC,171313.500,A,4308.4570,N,07727.0493,W,32.08,268.59,091019,,,A*44
$GPGGA,171313.750,4308.4570,N,07727.0524,W,1,07,1.11,163.7,M,-34.4,M,,*5E
$GPRMC,171314.000,A,4308.4571,N,07727.0555,W,32.05,269.70,091019,,,A*4B
$GPGGA,171314.250,4308.4572,N,07727.0587,W,1,07,1.20,163.8,M,-34.4,M,,*5A
$GPRMC,171314.500,A,4308.4573,N,07727.0618,W,32.18,270.88,091019,,,A*45
$GPGGA,171314.750,4308.4573,N,07727.0650,W,1,07,1.11,164.0,M,-34.4,M,,*5A
$GPRMC,171315.000,A,4308.4575,N,07727.0682,W,32.28,271.70,091019,,,A*41
$GPGGA,171315.250,4308.4576,N,07727.0714,W,1,07,1.11,164.2,M,-34.4,M,,*58
$GPRMC,171315.500,A,4308.4578,N,07727.0746,W,32.95,273.01,091019,,,A*42
$GPGGA,171315.750,4308.4581,N,07727.0777,W,1,07,1.11,164.3,M,-34.4,M,,*51
$GPRMC,171316.000,A,4308.4583,N,07727.0808,W,33.01,273.54,091019,,,A*49
$GPGGA,171316.250,4308.4585,N,07727.0839,W,1,07,1.20,164.5,M,-34.4,M,,*52
$GPRMC,171316.500,A,4308.4588,N,07727.0871,W,32.41,274.46,091019,,,A*48
$GPGGA,171316.750,4308.4592,N,07727.0903,W,1,07,1.20,164.7,M,-34.4,M,,*5B
$GPRMC,171317.000,A,4308.4595,N,07727.0935,W,32.79,276.35,091019,,,A*4C
$GPGGA,171317.250,4308.4599,N,07727.0967,W,1,07,1.20,165.1,M,-34.4,M,,*51
$GPRMC,171317.500,A,4308.4602,N,07727.0999,W,33.17,277.20,091019,,,A*4E
$GPGGA,171317.750,4308.4606,N,07727.1031,W,1,07,1.11,165.5,M,-34.4,M,,*5C
$GPRMC,171318.000,A,4308.4610,N,07727.1062,W,33.27,278.46,091019,,,A*47
$GPGGA,171318.250,4308.4614,N,07727.1094,W,1,07,1.20,165.9,M,-34.4,M,,*54
$GPRMC,171318.500,A,4308.4619,N,07727.1125,W,33.38,279.56,091019,,,A*47
$GPGGA,171318.750,4308.4623,N,07727.1156,W,1,07,1.20,166.4,M,-34.4,M,,*54
$GPRMC,171319.000,A,4308.4627,N,07727.1187,W,33.37,279.84,091019,,,A*46
$GPGGA,171319.250,4308.4632,N,07727.1218,W,1,07,1.20,166.8,M,-34.4,M,,*55
$GPRMC,171319.500,A,4308.4636,N,07727.1249,W,33.18,279.90,091019,,,A*4A
$GPGGA,171319.750,4308.4640,N,07727.1280,W,1,07,1.20,166.7,M,-34.4,M,,*5B
$GPRMC,171320.000,A,4308.4645,N,07727.1311,W,32.96,280.14,091019,,,A*40
$GPGGA,171320.250,4308.4649,N,07727.1341,W,1,07,1.20,166.9,M,-34.4,M,,*5F
$GPRMC,171320.500,A,4308.4653,N,07727.1371,W,32.92,280.08,091019,,,A*4D
$GPGGA,171320.750,4308.4657,N,07727.1402,W,1,07,1.20,167.2,M,-34.4,M,,*5F
$GPRMC,171321.000,A,4308.4661,N,07727.1432,W,32.48,280.32,091019,,,A*46
$GPGGA,171321.250,4308.4665,N,07727.1461,W,1,07,1.20,167.4,M,-34.4,M,,*59
$GPRMC,171321.500,A,4308.4669,N,07727.1490,W,31.81,280.24,091019,,,A*42
$GPGGA,171321.750,4308.4672,N,07727.1519,W,1,07,1.11,167.5,M,-34.4,M,,*57
$GPRMC,171322.000,A,4308.4676,N,07727.1547,W,31.56,280.44,091019,,,A*4D
$GPGGA,171322.250,4308.4679,N,07727.1575,W,1,07,1.20,167.5,M,-34.4,M,,*52
$GPRMC,171322.500,A,4308.4683,N,07727.1604,W,31.03,280.71,091019,,,A*40
$GPGGA,171322.750,4308.4687,N,07727.1633,W,1,07,1.20,167.5,M,-34.4,M,,*57
$GPRMC,171323.000,A,4308.4691,N,07727.1661,W,30.85,280.71,091019,,,A*4B
$GPGGA,171323.250,4308.4695,N,07727.1690,W,1,07,1.20,167.5,M,-34.4,M,,*59
$GPRMC,171323.500,A,4308.4699,N,07727.1719,W,30.81,281.06,091019,,,A*4D
$GPGGA,171323.750,4308.4703,N,07727.1749,W,1,07,1.11,167.5,M,-34.4,M,,*55
$GPRMC,171324.000,A,4308.4708,N,07727.1778,W,30.54,280.30,091019,,,A*4D
$GPGGA,171324.250,4308.4712,N,07727.1807,W,1,07,1.20,167.7,M,-34.4,M,,*52
$GPRMC,171324.500,A,4308.4716,N,07727.1836,W,30.55,279.86,091019,,,A*48
$GPGGA,171324.750,4308.4719,N,07727.1864,W,1,07,1.11,167.9,M,-34.4,M,,*55
$GPRMC,171325.000,A,4308.4723,N,07727.1893,W,30.31,279.12,091019,,,A*4A
$GPGGA,171325.250,4308.4726,N,07727.1921,W,1,07,1.20,168.2,M,-34.4,M,,*5B
$GPRMC,171325.500,A,4308.4729,N,07727.1949,W,30.23,278.69,091019,,,A*4D
$GPGGA,171325.750,4308.4732,N,07727.1978,W,1,07,1.11,168.6,M,-34.4,M,,*51
$GPRMC,171326.000,A,4308.4736,N,07727.2006,W,30.70,278.79,091019,,,A*43
$GPGGA,171326.250,4308.4739,N,07727.2035,W,1,07,1.20,168.9,M,-34.4,M,,*52
$GPRMC,171326.500,A,4308.4743,N,07727.2065,W,31.22,278.96,091019,,,A*46
$GPGGA,171326.750,4308.4747,N,07727.2094,W,1,07,1.11,169.3,M,-34.4,M,,*5C
$GPRMC,171327.000,A,4308.4750,N,07727.2124,W,31.45,278.62,091019,,,A*4E
$GPGGA,171327.250,4308.4753,N,07727.2153,W,1,07,1.11,169.6,M,-34.4,M,,*52
$GPRMC,171327.500,A,4308.4757,N,07727.2183,W,31.53,278.35,091019,,,A*44
$GPGGA,171327.750,4308.4760,N,07727.2213,W,1,07,1.11,169.9,M,-34.4,M,,*5F
$GPRMC,171328.000,A,4308.4764,N,07727.2243,W,32.02,278.54,091019,,,A*41
$GPGGA,171328.250,4308.4767,N,07727.2273,W,1,07,1.20,170.2,M,-34.4,M,,*55
$GPRMC,171328.500,A,4308.4771,N,07727.2303,W,31.79,278.58,091019,,,A*46
$GPGGA,171328.750,4308.4775,N,07727.2333,W,1,07,1.11,170.5,M,-34.4,M,,*53
$GPRMC,171329.000,A,4308.4778,N,07727.2362,W,31.37,278.87,091019,,,A*44
$GPGGA,171329.250,4308.4782,N,07727.2391,W,1,07,1.20,170.8,M,-34.4,M,,*58
$GPRMC,171329.500,A,4308.4785,N,07727.2421,W,31.26,279.05,091019,,,A*48
$GPGGA,171329.750,4308.4789,N,07727.2450,W,1,07,1.11,171.0,M,-34.4,M,,*57
$GPRMC,171330.000,A,4308.4792,N,07727.2480,W,31.22,278.56,091019,,,A*4B
$GPGGA,171330.250,4308.4796,N,07727.2509,W,1,07,1.11,171.3,M,-34.4,M,,*5A
$GPRMC,171330.500,A,4308.4799,N,07727.2538,W,30.80,278.35,091019,,,A*4B
$GPGGA,171330.750,4308.4802,N,07727.2567,W,1,07,1.11,171.2,M,-34.4,M,,*54
$GPRMC,171331.000,A,4308.4805,N,07727.2596,W,30.34,278.58,091019,,,A*45
$GPGGA,171331.250,4308.4809,N,07727.2625,W,1,07,1.20,170.9,M,-34.4,M,,*56
$GPRMC,171331.500,A,4308.4812,N,07727.2654,W,30.30,279.02,091019,,,A*41
$GPGGA,171331.750,4308.4816,N,07727.2683,W,1,07,1.11,170.7,M,-34.4,M,,*5D
$GPRMC,171332.000,A,4308.4819,N,07727.2711,W,30.20,279.44,091019,,,A*4F
$GPGGA,171332.250,4308.4823,N,07727.2740,W,1,07,1.20,170.5,M,-34.4,M,,*53
$GPRMC,171332.500,A,4308.4826,N,07727.2768,W,30.05,279.79,091019,,,A*41
$GPGGA,171332.750,4308.4830,N,07727.2796,W,1,07,1.20,170.3,M,-34.4,M,,*59
$GPRMC,171333.000,A,4308.4833,N,07727.2824,W,30.06,279.93,091019,,,A*41
$GPGGA,171333.250,4308.4837,N,07727.2852,W,1,07,1.20,170.1,M,-34.4,M,,*5F
$GPRMC,171333.500,A,4308.4841,N,07727.2880,W,30.16,280.08,091019,,,A*4A
$GPGGA,171333.750,4308.4845,N,07727.2908,W,1,07,1.11,170.0,M,-34.4,M,,*52
$GPRMC,171334.000,A,4308.4848,N,07727.2936,W,30.25,279.80,091019,,,A*4B
$GPGGA,171334.250,4308.4852,N,07727.2965,W,1,07,1.20,169.9,M,-34.4,M,,*5E
$GPRMC,171334.500,A,4308.4855,N,07727.2993,W,30.09,279.48,091019,,,A*47
$GPGGA,171334.750,4308.4858,N,07727.3021,W,1,07,1.11,169.7,M,-34.4,M,,*55
$GPRMC,171335.000,A,4308.4862,N,07727.3049,W,29.74,279.34,091019,,,A*41
$GPGGA,171335.250,4308.4865,N,07727.3077,W,1,07,1.20,169.6,M,-34.4,M,,*5F
$GPRMC,171335.500,A,4308.4869,N,07727.3105,W,29.69,279.39,091019,,,A*47
$GPGGA,171335.750,4308.4872,N,07727.3133,W,1,07,1.20,169.5,M,-34.4,M,,*5E
$GPRMC,171336.000,A,4308.4876,N,07727.3161,W,29.67,279.61,091019,,,A*4E
$GPGGA,171336.250,4308.4879,N,07727.3189,W,1,07,1.20,169.4,M,-34.4,M,,*53
$GPRMC,171336.500,A,4308.4883,N,07727.3217,W,29.60,279.43,091019,,,A*44
$GPGGA,171336.750,4308.4886,N,07727.3245,W,1,07,1.20,169.2,M,-34.4,M,,*53
$GPRMC,171337.000,A,4308.4889,N,07727.3272,W,29.49,279.37,091019,,,A*41
$GPGGA,171337.250,4308.4893,N,07727.3300,W,1,07,1.20,169.1,M,-34.4,M,,*50
$GPRMC,171337.500,A,4308.4896,N,07727.3328,W,29.40,279.82,091019,,,A*43
$GPGGA,171337.750,4308.4900,N,07727.3355,W,1,06,1.29,169.0,M,-34.4,M,,*57
$GPRMC,171338.000,A,4308.4903,N,07727.3382,W,29.32,280.19,091019,,,A*45
$GPGGA,171338.250,4308.4907,N,07727.3410,W,1,07,1.20,168.9,M,-34.4,M,,*5C
$GPRMC,171338.500,A,4308.4911,N,07727.3437,W,29.27,280.27,091019,,,A*43
$GPGGA,171338.750,4308.4914,N,07727.3464,W,1,07,1.20,168.8,M,-34.4,M,,*59
$GPRMC,171339.000,A,4308.4918,N,07727.3491,W,29.07,280.73,091019,,,A*41
$GPGGA,171339.250,4308.4921,N,07727.3517,W,1,07,1.20,168.5,M,-34.4,M,,*53
$GPRMC,171339.500,A,4308.4925,N,07727.3544,W,28.40,280.81,091019,,,A*4C
$GPGGA,171339.750,4308.4928,N,07727.3568,W,1,07,1.20,168.2,M,-34.4,M,,*50
$GPRMC,171340.000,A,4308.4931,N,07727.3593,W,27.11,280.82,091019,,,A*40
$GPGGA,171340.250,4308.4934,N,07727.3617,W,1,07,1.20,167.9,M,-34.4,M,,*59
$GPRMC,171340.500,A,4308.4937,N,07727.3641,W,25.97,280.62,091019,,,A*4D
$GPGGA,171340.750,4308.4939,N,07727.3663,W,1,07,1.11,167.7,M,-34.4,M,,*5E
$GPRMC,171341.000,A,4308.4942,N,07727.3686,W,24.64,280.14,091019,,,A*4C
$GPGGA,171341.250,4308.4945,N,07727.3707,W,1,07,1.20,167.4,M,-34.4,M,,*53
$GPRMC,171341.500,A,4308.4947,N,07727.3730,W,24.11,279.45,091019,,,A*40
$GPGGA,171341.750,4308.4950,N,07727.3752,W,1,07,1.20,167.2,M,-34.4,M,,*54
$GPRMC,171342.000,A,4308.4952,N,07727.3774,W,23.72,278.67,091019,,,A*41
$GPGGA,171342.250,4308.4955,N,07727.3795,W,1,06,1.29,167.1,M,-34.4,M,,*57
$GPRMC,171342.500,A,4308.4957,N,07727.3816,W,23.09,278.29,091019,,,A*4C
$GPGGA,171342.750,4308.4959,N,07727.3837,W,1,07,1.20,167.0,M,-34.4,M,,*50
$GPRMC,171343.000,A,4308.4962,N,07727.3858,W,22.41,278.05,091019,,,A*47
$GPGGA,171343.250,4308.4964,N,07727.3877,W,1,07,1.20,166.9,M,-34.4,M,,*56
$GPRMC,171343.500,A,4308.4966,N,07727.3897,W,21.52,278.30,091019,,,D*47
$GPGGA,171343.750,4308.4969,N,07727.3916,W,2,07,1.20,166.8,M,-34.4,M,0000,0000*5A
$GPRMC,171344.000,A,4308.4971,N,07727.3935,W,20.58,279.04,091019,,,D*47
$GPGGA,171344.250,4308.4973,N,07727.3953,W,2,07,1.20,166.7,M,-34.4,M,0000,0000*5D
$GPRMC,171344.500,A,4308.4975,N,07727.3971,W,19.53,278.83,091019,,,D*49
$GPGGA,171344.750,4308.4977,N,07727.3988,W,2,07,1.20,166.7,M,-34.4,M,0000,0000*5A
$GPRMC,171345.000,A,4308.4979,N,07727.4004,W,17.52,278.89,091019,,,D*48
$GPGGA,171345.250,4308.4981,N,07727.4019,W,2,07,1.20,166.7,M,-34.4,M,0000,0000*51
$GPRMC,171345.500,A,4308.4983,N,07727.4034,W,16.14,278.72,091019,,,D*4C
$GPGGA,171345.750,4308.4984,N,07727.4047,W,2,07,1.20,166.6,M,-34.4,M,0000,0000*5B
$GPRMC,171346.000,A,4308.4986,N,07727.4060,W,14.67,278.16,091019,,,D*4A
$GPGGA,171346.250,4308.4988,N,07727.4072,W,2,07,1.20,166.6,M,-34.4,M,0000,0000*57
$GPRMC,171346.500,A,4308.4990,N,07727.4084,W,13.86,278.12,091019,,,D*4E
$GPGGA,171346.750,4308.4991,N,07727.4096,W,2,07,1.20,166.5,M,-34.4,M,0000,0000*53
$GPRMC,171347.000,A,4308.4993,N,07727.4109,W,13.56,278.24,091019,,,D*45
$GPGGA,171347.250,4308.4994,N,07727.4121,W,2,07,1.20,166.3,M,-34.4,M,0000,0000*59
$GPRMC,171347.500,A,4308.4996,N,07727.4134,W,13.51,278.80,091019,,,D*42
$GPGGA,171347.750,4308.4997,N,07727.4148,W,2,07,1.20,166.2,M,-34.4,M,0000,0000*51
$GPRMC,171348.000,A,4308.4999,N,07727.4161,W,14.10,278.49,091019,,,D*40
$GPGGA,171348.250,4308.5000,N,07727.4176,W,2,07,1.20,166.1,M,-34.4,M,0000,0000*53
$GPRMC,171348.500,A,4308.5001,N,07727.4190,W,15.17,277.96,091019,,,D*49
$GPGGA,171348.750,4308.5003,N,07727.4205,W,2,07,1.20,166.0,M,-34.4,M,0000,0000*53
$GPRMC,171349.000,A,4308.5004,N,07727.4222,W,17.21,278.20,091019,,,D*47
$GPGGA,171349.250,4308.5006,N,07727.4240,W,2,07,1.20,165.8,M,-34.4,M,0000,0000*58
$GPRMC,171349.500,A,4308.5009,N,07727.4258,W,19.02,279.18,091019,,,D*47
$GPGGA,171349.750,4308.5011,N,07727.4277,W,2,07,1.20,165.7,M,-34.4,M,0000,0000*50
$GPRMC,171350.000,A,4308.5014,N,07727.4297,W,20.94,279.56,091019,,,D*4A
$GPGGA,171350.250,4308.5017,N,07727.4318,W,2,07,1.20,165.5,M,-34.4,M,0000,0000*51
$GPRMC,171350.500,A,4308.5019,N,07727.4339,W,22.35,279.36,091019,,,D*48
$GPGGA,171350.750,4308.5022,N,07727.4360,W,2,07,1.20,165.4,M,-34.4,M,0000,0000*5C
$GPRMC,171351.000,A,4308.5024,N,07727.4382,W,23.71,278.55,091019,,,D*47
$GPGGA,171351.250,4308.5026,N,07727.4404,W,2,07,1.20,165.3,M,-34.4,M,0000,0000*5E
$GPRMC,171351.500,A,4308.5028,N,07727.4427,W,24.65,278.19,091019,,,D*4C
$GPGGA,171351.750,4308.5031,N,07727.4452,W,2,07,1.20,165.3,M,-34.4,M,0000,0000*5E
$GPRMC,171352.000,A,4308.5033,N,07727.4477,W,25.75,278.10,091019,,,D*4C
$GPGGA,171352.250,4308.5036,N,07727.4503,W,2,07,1.20,165.2,M,-34.4,M,0000,0000*5B
$GPRMC,171352.500,A,4308.5039,N,07727.4529,W,26.98,277.99,091019,,,D*47
$GPGGA,171352.750,4308.5042,N,07727.4555,W,2,07,1.20,165.1,M,-34.4,M,0000,0000*5D
$GPRMC,171353.000,A,4308.5044,N,07727.4582,W,27.94,277.29,091019,,,D*4E
$GPGGA,171353.250,4308.5046,N,07727.4609,W,2,07,1.20,165.1,M,-34.4,M,0000,0000*57
$GPRMC,171353.500,A,4308.5049,N,07727.4636,W,28.58,277.16,091019,,,D*49
$GPGGA,171353.750,4308.5051,N,07727.4663,W,2,07,1.20,165.0,M,-34.4,M,0000,0000*59
$GPRMC,171354.000,A,4308.5054,N,07727.4691,W,29.21,276.73,091019,,,D*47
$GPGGA,171354.250,4308.5057,N,07727.4720,W,2,07,1.20,164.9,M,-34.4,M,0000,0000*53
$GPRMC,171354.500,A,4308.5060,N,07727.4750,W,29.54,277.17,091019,,,D*48
$GPGGA,171354.750,4308.5064,N,07727.4780,W,2,07,1.20,164.8,M,-34.4,M,0000,0000*5D
$GPRMC,171355.000,A,4308.5067,N,07727.4810,W,30.70,277.70,091019,,,D*4F
$GPGGA,171355.250,4308.5071,N,07727.4840,W,2,07,1.20,164.6,M,-34.4,M,0000,0000*50
$GPRMC,171355.500,A,4308.5075,N,07727.4872,W,31.56,277.96,091019,,,D*40
$GPGGA,171355.750,4308.5078,N,07727.4903,W,2,07,1.20,164.4,M,-34.4,M,0000,0000*58
$GPRMC,171356.000,A,4308.5082,N,07727.4934,W,32.64,278.16,091019,,,D*48
$GPGGA,171356.250,4308.5086,N,07727.4966,W,2,07,1.20,164.3,M,-34.4,M,0000,0000*5B
$GPRMC,171356.500,A,4308.5090,N,07727.4998,W,33.23,278.53,091019,,,D*4B
$GPGGA,171356.750,4308.5095,N,07727.5030,W,2,07,1.20,164.2,M,-34.4,M,0000,0000*56
$GPRMC,171357.000,A,4308.5099,N,07727.5062,W,33.89,278.89,091019,,,D*4C
$GPGGA,171357.250,4308.5103,N,07727.5094,W,2,07,1.20,164.3,M,-34.4,M,0000,0000*53
$GPRMC,171357.500,A,4308.5108,N,07727.5127,W,34.14,279.64,091019,,,D*41
$GPGGA,171357.750,4308.5112,N,07727.5159,W,2,07,1.20,164.3,M,-34.4,M,0000,0000*56
$GPRMC,171358.000,A,4308.5117,N,07727.5191,W,34.06,280.21,091019,,,D*4C
$GPGGA,171358.250,4308.5121,N,07727.5223,W,2,07,1.20,164.4,M,-34.4,M,0000,0000*55
$GPRMC,171358.500,A,4308.5126,N,07727.5255,W,33.45,280.76,091019,,,D*42
$GPGGA,171358.750,4308.5131,N,07727.5286,W,2,07,1.20,164.5,M,-34.4,M,0000,0000*5F
$GPRMC,171359.000,A,4308.5135,N,07727.5317,W,33.05,281.11,091019,,,D*47
$GPGGA,171359.250,4308.5139,N,07727.5347,W,2,07,1.20,164.6,M,-34.4,M,0000,0000*5C
$GPRMC,171359.500,A,4308.5144,N,07727.5378,W,32.71,280.87,091019,,,D*41
$GPGGA,171359.750,4308.5148,N,07727.5409,W,2,07,1.20,164.5,M,-34.4,M,0000,0000*51
$GPRMC,171400.000,A,4308.5153,N,07727.5439,W,32.64,281.16,091019,,,D*46
$GPGGA,171400.250,4308.5157,N,07727.5469,W,2,07,1.20,164.4,M,-34.4,M,0000,0000*56
$GPRMC,171400.500,A,4308.5161,N,07727.5499,W,32.40,281.32,091019,,,A*4D
$GPGGA,171400.750,4308.5165,N,07727.5530,W,1,07,1.20,164.3,M,-34.4,M,,*5B
$GPRMC,171401.000,A,4308.5169,N,07727.5561,W,32.53,280.39,091019,,,A*4F
$GPGGA,171401.250,4308.5174,N,07727.5592,W,1,07,1.20,164.4,M,-34.4,M,,*50
$GPRMC,171401.500,A,4308.5178,N,07727.5623,W,32.62,280.66,091019,,,A*47
$GPGGA,171401.750,4308.5183,N,07727.5654,W,1,06,1.29,164.4,M,-34.4,M,,*5C
$GPRMC,171402.000,A,4308.5187,N,07727.5684,W,32.13,280.81,091019,,,A*43
$GPGGA,171402.250,4308.5191,N,07727.5714,W,1,06,1.29,164.6,M,-34.4,M,,*5E
$GPRMC,171402.500,A,4308.5195,N,07727.5744,W,31.65,280.80,091019,,,A*4B
$GPGGA,171402.750,4308.5200,N,07727.5773,W,1,07,1.20,164.8,M,-34.4,M,,*57
$GPRMC,171403.000,A,4308.5203,N,07727.5802,W,31.40,280.70,091019,,,A*46
$GPGGA,171403.250,4308.5207,N,07727.5831,W,1,07,1.20,164.9,M,-34.4,M,,*5C
$GPRMC,171403.500,A,4308.5211,N,07727.5861,W,31.50,280.78,091019,,,A*4C
$GPGGA,171403.750,4308.5215,N,07727.5890,W,1,07,1.20,165.1,M,-34.4,M,,*58
$GPRMC,171404.000,A,4308.5219,N,07727.5918,W,31.25,280.69,091019,,,A*4B
$GPGGA,171404.250,4308.5223,N,07727.5947,W,1,07,1.20,165.3,M,-34.4,M,,*56
$GPRMC,171404.500,A,4308.5227,N,07727.5976,W,31.30,280.09,091019,,,A*49
$GPGGA,171404.750,4308.5230,N,07727.6004,W,1,07,1.11,165.4,M,-34.4,M,,*59
$GPRMC,171405.000,A,4308.5234,N,07727.6033,W,31.49,279.33,091019,,,A*45
$GPGGA,171405.250,4308.5237,N,07727.6062,W,1,07,1.20,165.5,M,-34.4,M,,*59
$GPRMC,171405.500,A,4308.5241,N,07727.6092,W,31.71,278.96,091019,,,A*4C
$GPGGA,171405.750,4308.5244,N,07727.6121,W,1,07,1.20,165.6,M,-34.4,M,,*5D
$GPRMC,171406.000,A,4308.5247,N,07727.6151,W,31.85,278.25,091019,,,A*41
$GPGGA,171406.250,4308.5250,N,07727.6181,W,1,07,1.20,165.6,M,-34.4,M,,*54
$GPRMC,171406.500,A,4308.5253,N,07727.6212,W,32.43,277.69,091019,,,A*4B
$GPGGA,171406.750,4308.5256,N,07727.6243,W,1,07,1.11,165.6,M,-34.4,M,,*58
$GPRMC,171407.000,A,4308.5259,N,07727.6274,W,32.99,277.35,091019,,,A*4B
$GPGGA,171407.250,4308.5262,N,07727.6306,W,1,07,1.20,165.6,M,-34.4,M,,*59
$GPRMC,171407.500,A,4308.5265,N,07727.6337,W,33.15,277.25,091019,,,A*43
$GPGGA,171407.750,4308.5267,N,07727.6369,W,1,07,1.20,165.6,M,-34.4,M,,*50
$GPRMC,171408.000,A,4308.5270,N,07727.6400,W,33.58,277.02,091019,,,A*42
$GPGGA,171408.250,4308.5273,N,07727.6432,W,1,07,1.11,165.6,M,-34.4,M,,*54
$GPRMC,171408.500,A,4308.5275,N,07727.6463,W,33.76,276.84,091019,,,A*44
$GPGGA,171408.750,4308.5278,N,07727.6495,W,1,07,1.11,165.6,M,-34.4,M,,*57
$GPRMC,171409.000,A,4308.5280,N,07727.6527,W,33.71,276.25,091019,,,A*47
$GPGGA,171409.250,4308.5283,N,07727.6558,W,1,07,1.20,165.5,M,-34.4,M,,*56
$GPRMC,171409.500,A,4308.5286,N,07727.6590,W,33.63,275.82,091019,,,A*45
$GPGGA,171409.750,4308.5287,N,07727.6621,W,1,07,1.11,165.5,M,-34.4,M,,*58
$GPRMC,171410.000,A,4308.5289,N,07727.6652,W,33.63,274.59,091019,,,A*4D
$GPGGA,171410.250,4308.5291,N,07727.6684,W,1,07,1.11,165.5,M,-34.4,M,,*5D
$GPRMC,171410.500,A,4308.5293,N,07727.6716,W,33.66,274.13,091019,,,A*49
$GPGGA,171410.750,4308.5295,N,07727.6748,W,1,07,1.11,165.5,M,-34.4,M,,*5D
$GPRMC,171411.000,A,4308.5297,N,07727.6781,W,33.70,274.03,091019,,,A*41
$GPGGA,171411.250,4308.5300,N,07727.6814,W,1,07,1.20,165.4,M,-34.4,M,,*51
$GPRMC,171411.500,A,4308.5301,N,07727.6846,W,34.14,273.92,091019,,,A*44
$GPGGA,171411.750,4308.5303,N,07727.6879,W,1,07,1.11,165.4,M,-34.4,M,,*5E
$GPRMC,171412.000,A,4308.5305,N,07727.6911,W,33.77,273.75,091019,,,A*4E
$GPGGA,171412.250,4308.5307,N,07727.6943,W,1,07,1.20,165.4,M,-34.4,M,,*56
$GPRMC,171412.500,A,4308.5309,N,07727.6975,W,33.87,274.01,091019,,,A*4E
$GPGGA,171412.750,4308.5310,N,07727.7006,W,1,07,1.11,165.5,M,-34.4,M,,*5F
$GPRMC,171413.000,A,4308.5312,N,07727.7037,W,33.64,274.19,091019,,,A*4A
$GPGGA,171413.250,4308.5314,N,07727.7068,W,1,07,1.20,165.7,M,-34.4,M,,*57
$GPRMC,171413.500,A,4308.5316,N,07727.7099,W,32.71,274.73,091019,,,A*46
$GPGGA,171413.750,4308.5318,N,07727.7130,W,1,07,1.11,165.9,M,-34.4,M,,*5E
$GPRMC,171414.000,A,4308.5320,N,07727.7161,W,32.95,274.99,091019,,,A*49
$GPGGA,171414.250,4308.5322,N,07727.7193,W,1,07,1.11,166.2,M,-34.4,M,,*54
$GPRMC,171414.500,A,4308.5324,N,07727.7225,W,32.68,274.77,091019,,,A*49
$GPGGA,171414.750,4308.5327,N,07727.7257,W,1,07,1.11,166.4,M,-34.4,M,,*59
$GPRMC,171415.000,A,4308.5329,N,07727.7290,W,32.87,274.68,091019,,,A*41
$GPGGA,171415.250,4308.5331,N,07727.7322,W,1,07,1.11,166.7,M,-34.4,M,,*5A
$GPRMC,171415.500,A,4308.5333,N,07727.7354,W,33.93,274.74,091019,,,A*4F
$GPGGA,171415.750,4308.5335,N,07727.7386,W,1,07,1.11,167.0,M,-34.4,M,,*53
$GPRMC,171416.000,A,4308.5337,N,07727.7418,W,33.88,274.47,091019,,,A*48
$GPGGA,171416.250,4308.5339,N,07727.7450,W,1,07,1.11,167.2,M,-34.4,M,,*57
$GPRMC,171416.500,A,4308.5341,N,07727.7482,W,33.78,274.62,091019,,,A*47
$GPGGA,171416.750,4308.5343,N,07727.7514,W,1,07,1.11,167.5,M,-34.4,M,,*59
$GPRMC,171417.000,A,4308.5345,N,07727.7546,W,33.35,273.63,091019,,,A*41
$GPGGA,171417.250,4308.5346,N,07727.7577,W,1,07,1.11,167.7,M,-34.4,M,,*5F
$GPRMC,171417.500,A,4308.5348,N,07727.7608,W,32.91,273.26,091019,,,A*4E
$GPGGA,171417.750,4308.5349,N,07727.7639,W,1,07,1.11,168.0,M,-34.4,M,,*54
$GPRMC,171418.000,A,4308.5351,N,07727.7671,W,32.45,273.29,091019,,,A*44
$GPGGA,171418.250,4308.5353,N,07727.7702,W,1,07,1.20,168.3,M,-34.4,M,,*5D
$GPRMC,171418.500,A,4308.5355,N,07727.7732,W,31.59,273.83,091019,,,A*4D
$GPGGA,171418.750,4308.5357,N,07727.7762,W,1,07,1.20,168.7,M,-34.4,M,,*5E
$GPRMC,171419.000,A,4308.5358,N,07727.7792,W,30.33,273.74,091019,,,A*4B
$GPGGA,171419.250,4308.5360,N,07727.7821,W,1,07,1.20,169.3,M,-34.4,M,,*53
$GPRMC,171419.500,A,4308.5362,N,07727.7849,W,28.99,274.59,091019,,,A*4F
$GPGGA,171419.750,4308.5364,N,07727.7876,W,1,07,1.20,169.5,M,-34.4,M,,*56
$GPRMC,171420.000,A,4308.5365,N,07727.7902,W,26.89,274.70,091019,,,A*4D
$GPGGA,171420.250,4308.5367,N,07727.7926,W,1,07,1.20,170.0,M,-34.4,M,,*53
$GPRMC,171420.500,A,4308.5368,N,07727.7950,W,24.91,274.90,091019,,,A*47
$GPGGA,171420.750,4308.5369,N,07727.7971,W,1,07,1.20,170.5,M,-34.4,M,,*5F
$GPRMC,171421.000,A,4308.5371,N,07727.7992,W,22.44,275.43,091019,,,A*44
$GPGGA,171421.250,4308.5372,N,07727.8012,W,1,07,1.20,171.0,M,-34.4,M,,*56
$GPRMC,171421.500,A,4308.5373,N,07727.8031,W,20.53,275.84,091019,,,A*43
$GPGGA,171421.750,4308.5374,N,07727.8047,W,1,07,1.11,170.4,M,-34.4,M,,*52
$GPRMC,171422.000,A,4308.5375,N,07727.8062,W,17.11,277.31,091019,,,A*4B
$GPGGA,171422.250,4308.5376,N,07727.8075,W,1,07,1.20,170.8,M,-34.4,M,,*59
$GPRMC,171422.500,A,4308.5377,N,07727.8087,W,14.22,277.63,091019,,,A*43
$GPGGA,171422.750,4308.5379,N,07727.8097,W,1,07,1.20,170.7,M,-34.4,M,,*50
$GPRMC,171423.000,A,4308.5380,N,07727.8107,W,11.29,280.28,091019,,,A*4F
$GPGGA,171423.250,4308.5382,N,07727.8117,W,1,07,1.20,171.1,M,-34.4,M,,*5E
$GPRMC,171423.500,A,4308.5383,N,07727.8125,W,9.51,282.97,091019,,,A*79
$GPGGA,171423.750,4308.5384,N,07727.8134,W,1,07,1.20,171.1,M,-34.4,M,,*5C
$GPRMC,171424.000,A,4308.5386,N,07727.8142,W,8.09,285.78,091019,,,A*75
$GPGGA,171424.250,4308.5387,N,07727.8150,W,1,07,1.20,171.6,M,-34.4,M,,*58
$GPRMC,171424.500,A,4308.5388,N,07727.8158,W,8.33,282.22,091019,,,A*74
$GPGGA,171424.750,4308.5389,N,07727.8166,W,1,07,1.20,171.7,M,-34.4,M,,*57
$GPRMC,171425.000,A,4308.5390,N,07727.8175,W,9.00,279.83,091019,,,A*78
$GPGGA,171425.250,4308.5390,N,07727.8184,W,1,07,1.20,172.0,M,-34.4,M,,*53
$GPRMC,171425.500,A,4308.5391,N,07727.8194,W,10.53,276.61,091019,,,A*4E
$GPGGA,171425.750,4308.5392,N,07727.8206,W,1,07,1.20,172.3,M,-34.4,M,,*5E
$GPRMC,171426.000,A,4308.5392,N,07727.8219,W,12.85,274.06,091019,,,A*47
$GPGGA,171426.250,4308.5393,N,07727.8233,W,1,07,1.20,172.6,M,-34.4,M,,*5A
$GPRMC,171426.500,A,4308.5393,N,07727.8246,W,14.70,272.00,091019,,,A*45
$GPGGA,171426.750,4308.5392,N,07727.8261,W,1,07,1.20,172.8,M,-34.4,M,,*57
$GPRMC,171427.000,A,4308.5392,N,07727.8277,W,17.07,270.62,091019,,,A*47
$GPGGA,171427.250,4308.5392,N,07727.8294,W,1,07,1.20,173.0,M,-34.4,M,,*50
$GPRMC,171427.500,A,4308.5391,N,07727.8312,W,19.11,269.40,091019,,,A*42
