Vers 81
USE_SERIAL_FEEDBACK=true
DEVELOPMENT_MODE=false
USE_RMC_ONLY=false

$GPRMC,210307.500,A,4305.1665,N,07740.8696,W,0.25,25.31,081019,,,A*4E
$GPGGA,210307.750,4305.1665,N,07740.8696,W,1,04,4.98,166.7,M,-34.4,M,,*51
$GPRMC,210308.000,A,4305.1665,N,07740.8696,W,0.22,350.87,081019,,,A*7F
$GPGGA,210308.250,4305.1665,N,07740.8696,W,1,04,6.92,166.8,M,-34.4,M,,*5C
$GPRMC,210308.500,A,4305.1665,N,07740.8696,W,0.27,8.91,081019,,,A*76
$GPGGA,210308.750,4305.1666,N,07740.8696,W,1,04,6.91,166.8,M,-34.4,M,,*59
$GPRMC,210309.000,A,4305.1666,N,07740.8696,W,0.32,14.27,081019,,,A*45
$GPGGA,210309.250,4305.1666,N,07740.8696,W,1,04,6.91,166.8,M,-34.4,M,,*5D
$GPRMC,210309.500,A,4305.1666,N,07740.8696,W,0.28,9.82,081019,,,A*78
$GPGGA,210309.750,4305.1666,N,07740.8696,W,1,04,6.90,166.9,M,-34.4,M,,*58
$GPRMC,210310.000,A,4305.1667,N,07740.8696,W,0.30,13.21,081019,,,A*4F
$GPGGA,210310.250,4305.1667,N,07740.8696,W,1,04,6.89,166.9,M,-34.4,M,,*5C
$GPRMC,210310.500,A,4305.1667,N,07740.8696,W,0.32,30.98,081019,,,A*4B
$GPGGA,210310.750,4305.1667,N,07740.8696,W,1,04,4.97,167.0,M,-34.4,M,,*5C
$GPRMC,210311.000,A,4305.1667,N,07740.8695,W,0.34,39.81,081019,,,A*4B
$GPGGA,210311.250,4305.1668,N,07740.8695,W,1,04,4.98,167.0,M,-34.4,M,,*5B
$GPRMC,210311.500,A,4305.1668,N,07740.8695,W,0.29,21.10,081019,,,A*4C
$GPGGA,210311.750,4305.1668,N,07740.8695,W,1,04,4.97,167.0,M,-34.4,M,,*51
$GPRMC,210312.000,A,4305.1668,N,07740.8695,W,0.25,26.88,081019,,,A*40
$GPGGA,210312.250,4305.1668,N,07740.8695,W,1,04,4.97,167.0,M,-34.4,M,,*57
$GPRMC,210312.500,A,4305.1668,N,07740.8695,W,0.18,353.78,081019,,,A*75
$GPGGA,210312.750,4305.1668,N,07740.8695,W,1,04,6.88,167.1,M,-34.4,M,,*5F
$GPRMC,210313.000,A,4305.1669,N,07740.8695,W,0.14,320.34,081019,,,A*70
$GPGGA,210313.250,4305.1669,N,07740.8695,W,1,04,4.97,167.1,M,-34.4,M,,*56
$GPRMC,210313.500,A,4305.1669,N,07740.8695,W,0.04,3.34,081019,,,A*76
$GPGGA,210313.750,4305.1669,N,07740.8695,W,1,04,6.87,167.1,M,-34.4,M,,*50
$GPRMC,210314.000,A,4305.1669,N,07740.8695,W,0.09,5.19,081019,,,A*70
$GPGGA,210314.250,4305.1669,N,07740.8695,W,1,04,6.86,167.1,M,-34.4,M,,*53
$GPRMC,210314.500,A,4305.1669,N,07740.8695,W,0.12,315.71,081019,,,A*73
$GPGGA,210314.750,4305.1669,N,07740.8695,W,1,04,4.96,167.1,M,-34.4,M,,*55
$GPRMC,210315.000,A,4305.1669,N,07740.8695,W,0.11,343.12,081019,,,A*72
$GPGGA,210315.250,4305.1669,N,07740.8695,W,1,04,4.96,167.1,M,-34.4,M,,*51
$GPRMC,210315.500,A,4305.1669,N,07740.8695,W,0.04,304.49,081019,,,A*7E
$GPGGA,210315.750,4305.1669,N,07740.8695,W,1,04,4.96,167.2,M,-34.4,M,,*57
$GPRMC,210316.000,A,4305.1669,N,07740.8695,W,0.11,278.78,081019,,,A*74
$GPGGA,210316.250,4305.1669,N,07740.8695,W,1,04,4.95,167.2,M,-34.4,M,,*52
$GPRMC,210316.500,A,4305.1669,N,07740.8696,W,0.14,244.82,081019,,,A*7D
$GPGGA,210316.750,4305.1669,N,07740.8696,W,1,04,4.95,167.2,M,-34.4,M,,*54
$GPRMC,210317.000,A,4305.1669,N,07740.8696,W,0.17,210.22,081019,,,A*71
$GPGGA,210317.250,4305.1669,N,07740.8696,W,1,04,4.96,167.2,M,-34.4,M,,*53
$GPRMC,210317.500,A,4305.1669,N,07740.8696,W,0.24,170.74,081019,,,A*72
$GPGGA,210317.750,4305.1668,N,07740.8696,W,1,04,4.95,167.2,M,-34.4,M,,*54
$GPRMC,210318.000,A,4305.1668,N,07740.8696,W,0.17,191.01,081019,,,A*74
$GPGGA,210318.250,4305.1668,N,07740.8696,W,1,04,4.94,167.2,M,-34.4,M,,*5F
$GPRMC,210318.500,A,4305.1668,N,07740.8696,W,0.20,220.92,081019,,,A*76
$GPGGA,210318.750,4305.1668,N,07740.8696,W,1,04,4.94,167.2,M,-34.4,M,,*5A
$GPRMC,210319.000,A,4305.1668,N,07740.8696,W,0.24,208.20,081019,,,A*75
$GPGGA,210319.250,4305.1668,N,07740.8696,W,1,04,4.94,167.2,M,-34.4,M,,*5E
$GPRMC,210319.500,A,4305.1667,N,07740.8696,W,0.22,184.39,081019,,,A*76
$GPGGA,210319.750,4305.1667,N,07740.8696,W,1,04,4.94,167.2,M,-34.4,M,,*54
$GPRMC,210320.000,A,4305.1667,N,07740.8696,W,0.21,160.96,081019,,,A*75
$GPGGA,210320.250,4305.1667,N,07740.8696,W,1,04,4.93,167.2,M,-34.4,M,,*5C
$GPRMC,210320.500,A,4305.1667,N,07740.8696,W,0.18,142.79,081019,,,A*7B
$GPGGA,210320.750,4305.1667,N,07740.8696,W,1,04,4.94,167.2,M,-34.4,M,,*5E
$GPRMC,210321.000,A,4305.1667,N,07740.8696,W,0.09,145.72,081019,,,A*73
$GPGGA,210321.250,4305.1667,N,07740.8696,W,1,04,4.93,167.2,M,-34.4,M,,*5D
$GPRMC,210321.500,A,4305.1667,N,07740.8696,W,0.10,186.98,081019,,,A*75
$GPGGA,210321.750,4305.1667,N,07740.8696,W,1,04,4.93,167.2,M,-34.4,M,,*58
$GPRMC,210322.000,A,4305.1667,N,07740.8696,W,0.05,88.98,081019,,,A*48
$GPGGA,210322.250,4305.1666,N,07740.8696,W,1,04,4.93,167.2,M,-34.4,M,,*5F
$GPRMC,210322.500,A,4305.1666,N,07740.8696,W,0.06,225.64,081019,,,A*79
$GPGGA,210322.750,4305.1666,N,07740.8696,W,1,04,4.94,167.2,M,-34.4,M,,*5D
$GPRMC,210323.000,A,4305.1666,N,07740.8696,W,0.04,241.16,081019,,,A*78
$GPGGA,210323.250,4305.1666,N,07740.8696,W,1,04,4.94,167.2,M,-34.4,M,,*59
$GPRMC,210323.500,A,4305.1666,N,07740.8696,W,0.15,138.20,081019,,,A*75
$GPGGA,210323.750,4305.1666,N,07740.8696,W,1,04,4.92,167.2,M,-34.4,M,,*5A
$GPRMC,210324.000,A,4305.1666,N,07740.8696,W,0.23,129.50,081019,,,A*75
$GPGGA,210324.250,4305.1666,N,07740.8695,W,1,04,4.92,167.2,M,-34.4,M,,*5B
$GPRMC,210324.500,A,4305.1666,N,07740.8695,W,0.27,129.44,081019,,,A*72
$GPGGA,210324.750,4305.1666,N,07740.8695,W,1,04,4.92,167.2,M,-34.4,M,,*5E
$GPRMC,210325.000,A,4305.1665,N,07740.8695,W,0.24,166.26,081019,,,A*79
$GPGGA,210325.250,4305.1665,N,07740.8695,W,1,04,4.92,167.2,M,-34.4,M,,*59
$GPRMC,210325.500,A,4305.1665,N,07740.8695,W,0.27,124.32,081019,,,A*7C
$GPGGA,210325.750,4305.1665,N,07740.8695,W,1,04,4.92,167.2,M,-34.4,M,,*5C
$GPRMC,210326.000,A,4305.1665,N,07740.8694,W,0.30,111.47,081019,,,A*79
$GPGGA,210326.250,4305.1665,N,07740.8694,W,1,04,4.92,167.2,M,-34.4,M,,*5B
$GPRMC,210326.500,A,4305.1665,N,07740.8694,W,0.26,115.51,081019,,,A*78
$GPGGA,210326.750,4305.1665,N,07740.8694,W,1,04,4.92,167.2,M,-34.4,M,,*5E
$GPRMC,210327.000,A,4305.1665,N,07740.8693,W,0.14,104.38,081019,,,A*75
$GPGGA,210327.250,4305.1665,N,07740.8693,W,1,04,4.92,167.2,M,-34.4,M,,*5D
$GPRMC,210327.500,A,4305.1665,N,07740.8693,W,0.12,169.03,081019,,,A*75
$GPGGA,210327.750,4305.1664,N,07740.8693,W,1,04,4.92,167.2,M,-34.4,M,,*59
$GPRMC,210328.000,A,4305.1664,N,07740.8693,W,0.16,149.10,081019,,,A*7A
$GPGGA,210328.250,4305.1664,N,07740.8693,W,1,04,4.91,167.2,M,-34.4,M,,*50
$GPRMC,210328.500,A,4305.1664,N,07740.8693,W,0.19,165.50,081019,,,A*7A
$GPGGA,210328.750,4305.1664,N,07740.8693,W,1,04,4.91,167.2,M,-34.4,M,,*55
$GPRMC,210329.000,A,4305.1664,N,07740.8693,W,0.25,173.09,081019,,,A*7A
$GPGGA,210329.250,4305.1664,N,07740.8693,W,1,04,4.91,167.2,M,-34.4,M,,*51
$GPRMC,210329.500,A,4305.1663,N,07740.8693,W,0.34,181.22,081019,,,A*7C
$GPGGA,210329.750,4305.1663,N,07740.8693,W,1,04,4.91,167.2,M,-34.4,M,,*53
$GPRMC,210330.000,A,4305.1663,N,07740.8693,W,0.35,183.99,081019,,,A*72
$GPGGA,210330.250,4305.1663,N,07740.8693,W,1,04,4.90,167.2,M,-34.4,M,,*5F
$GPRMC,210330.500,A,4305.1662,N,07740.8693,W,0.30,177.64,081019,,,A*7A
$GPGGA,210330.750,4305.1662,N,07740.8693,W,1,04,4.90,167.2,M,-34.4,M,,*5B
$GPRMC,210331.000,A,4305.1662,N,07740.8693,W,0.34,170.39,081019,,,A*75
$GPGGA,210331.250,4305.1662,N,07740.8693,W,1,04,4.90,167.2,M,-34.4,M,,*5F
$GPRMC,210331.500,A,4305.1661,N,07740.8693,W,0.44,163.65,081019,,,A*7F
$GPGGA,210331.750,4305.1661,N,07740.8692,W,1,04,4.90,167.2,M,-34.4,M,,*58
$GPRMC,210332.000,A,4305.1661,N,07740.8692,W,0.48,172.85,081019,,,A*7A
$GPGGA,210332.250,4305.1660,N,07740.8692,W,1,04,4.89,167.2,M,-34.4,M,,*57
$GPRMC,210332.500,A,4305.1660,N,07740.8692,W,0.47,179.75,081019,,,A*75
$GPGGA,210332.750,4305.1660,N,07740.8692,W,1,04,4.89,167.2,M,-34.4,M,,*52
$GPRMC,210333.000,A,4305.1659,N,07740.8692,W,0.55,173.75,081019,,,A*72
$GPGGA,210333.250,4305.1659,N,07740.8692,W,1,04,4.89,167.2,M,-34.4,M,,*5C
$GPRMC,210333.500,A,4305.1658,N,07740.8692,W,0.51,171.79,081019,,,A*7C
$GPGGA,210333.750,4305.1658,N,07740.8692,W,1,04,4.89,167.2,M,-34.4,M,,*58
$GPRMC,210334.000,A,4305.1658,N,07740.8692,W,0.54,165.89,081019,,,A*71
$GPGGA,210334.250,4305.1657,N,07740.8692,W,1,04,4.89,167.2,M,-34.4,M,,*55
$GPRMC,210334.500,A,4305.1657,N,07740.8692,W,0.55,169.23,081019,,,A*76
$GPGGA,210334.750,4305.1657,N,07740.8692,W,1,04,4.89,167.2,M,-34.4,M,,*50
$GPRMC,210335.000,A,4305.1656,N,07740.8691,W,0.50,168.27,081019,,,A*70
$GPGGA,210335.250,4305.1656,N,07740.8691,W,1,04,4.89,167.2,M,-34.4,M,,*56
$GPRMC,210335.500,A,4305.1655,N,07740.8691,W,0.54,165.59,081019,,,A*76
$GPGGA,210335.750,4305.1655,N,07740.8691,W,1,04,4.89,167.2,M,-34.4,M,,*50
$GPRMC,210336.000,A,4305.1655,N,07740.8691,W,0.45,164.46,081019,,,A*7F
$GPGGA,210336.250,4305.1654,N,07740.8691,W,1,04,4.88,167.2,M,-34.4,M,,*56
$GPRMC,210336.500,A,4305.1654,N,07740.8691,W,0.35,164.08,081019,,,A*76
$GPGGA,210336.750,4305.1654,N,07740.8691,W,1,04,4.88,167.2,M,-34.4,M,,*53
$GPRMC,210337.000,A,4305.1654,N,07740.8691,W,0.23,134.50,081019,,,A*7D
$GPGGA,210337.250,4305.1654,N,07740.8690,W,1,04,4.88,167.2,M,-34.4,M,,*56
$GPRMC,210337.500,A,4305.1654,N,07740.8690,W,0.41,71.38,081019,,,A*43
$GPGGA,210337.750,4305.1654,N,07740.8690,W,1,04,4.88,167.2,M,-34.4,M,,*53
$GPRMC,210338.000,A,4305.1654,N,07740.8688,W,0.72,66.24,081019,,,A*4B
$GPGGA,210338.250,4305.1653,N,07740.8685,W,1,04,4.87,167.2,M,-34.4,M,,*55
$GPRMC,210338.500,A,4305.1652,N,07740.8683,W,1.07,74.83,081019,,,A*4E
$GPGGA,210338.750,4305.1651,N,07740.8679,W,1,04,4.87,167.3,M,-34.4,M,,*50
$GPRMC,210339.000,A,4305.1651,N,07740.8677,W,1.53,77.10,081019,,,A*4A
$GPGGA,210339.250,4305.1651,N,07740.8674,W,1,04,4.87,167.3,M,-34.4,M,,*59
$GPRMC,210339.500,A,4305.1651,N,07740.8672,W,1.93,77.14,081019,,,A*42
$GPGGA,210339.750,4305.1651,N,07740.8668,W,1,04,4.88,167.4,M,-34.4,M,,*59
$GPRMC,210340.000,A,4305.1651,N,07740.8665,W,2.39,78.63,081019,,,A*43
$GPGGA,210340.250,4305.1651,N,07740.8663,W,1,04,4.87,167.3,M,-34.4,M,,*51
$GPRMC,210340.500,A,4305.1652,N,07740.8662,W,2.05,73.29,081019,,,A*48
$GPGGA,210340.750,4305.1652,N,07740.8661,W,1,04,4.86,167.2,M,-34.4,M,,*55
$GPRMC,210341.000,A,4305.1651,N,07740.8660,W,1.08,73.34,081019,,,A*4F
$GPGGA,210341.250,4305.1650,N,07740.8659,W,1,04,4.86,167.1,M,-34.4,M,,*5B
$GPRMC,210341.500,A,4305.1648,N,07740.8660,W,0.31,164.06,081019,,,A*7F
$GPGGA,210341.750,4305.1648,N,07740.8662,W,1,04,4.86,167.1,M,-34.4,M,,*5F
$GPRMC,210342.000,A,4305.1647,N,07740.8663,W,0.77,230.32,081019,,,A*72
$GPGGA,210342.250,4305.1645,N,07740.8666,W,1,04,4.87,167.0,M,-34.4,M,,*50
$GPRMC,210342.500,A,4305.1646,N,07740.8672,W,1.90,252.30,081019,,,A*78
$GPGGA,210342.750,4305.1650,N,07740.8681,W,1,04,4.86,166.9,M,-34.4,M,,*51
$GPRMC,210343.000,A,4305.1650,N,07740.8687,W,3.23,268.18,081019,,,A*78
$GPGGA,210343.250,4305.1650,N,07740.8691,W,1,04,4.86,166.8,M,-34.4,M,,*55
$GPRMC,210343.500,A,4305.1650,N,07740.8696,W,4.85,266.18,081019,,,A*78
$GPGGA,210343.750,4305.1651,N,07740.8702,W,1,04,6.60,166.7,M,-34.4,M,,*5F
$GPRMC,210344.000,A,4305.1651,N,07740.8708,W,6.24,269.59,081019,,,A*7E
$GPGGA,210344.250,4305.1651,N,07740.8714,W,1,04,4.86,166.7,M,-34.4,M,,*50
$GPRMC,210344.500,A,4305.1651,N,07740.8720,W,6.66,270.89,081019,,,A*72
$GPGGA,210344.750,4305.1651,N,07740.8726,W,1,04,6.60,166.6,M,-34.4,M,,*5F
$GPRMC,210345.000,A,4305.1650,N,07740.8732,W,6.85,271.72,081019,,,A*7C
$GPGGA,210345.250,4305.1650,N,07740.8738,W,1,04,6.59,166.5,M,-34.4,M,,*5C
$GPRMC,210345.500,A,4305.1649,N,07740.8745,W,7.25,271.45,081019,,,A*7E
$GPGGA,210345.750,4305.1649,N,07740.8751,W,1,04,6.59,166.4,M,-34.4,M,,*5F
$GPRMC,210346.000,A,4305.1648,N,07740.8757,W,7.12,271.48,081019,,,A*73
$GPGGA,210346.250,4305.1647,N,07740.8763,W,1,04,6.58,166.3,M,-34.4,M,,*50
$GPRMC,210346.500,A,4305.1647,N,07740.8769,W,6.99,272.44,081019,,,A*79
$GPGGA,210346.750,4305.1647,N,07740.8775,W,1,04,4.84,166.2,M,-34.4,M,,*50
$GPRMC,210347.000,A,4305.1649,N,07740.8781,W,6.29,281.21,081019,,,A*71
$GPGGA,210347.250,4305.1647,N,07740.8785,W,1,04,4.84,166.1,M,-34.4,M,,*58
$GPRMC,210347.500,A,4305.1647,N,07740.8790,W,5.46,279.56,081019,,,A*77
$GPGGA,210347.750,4305.1646,N,07740.8794,W,1,04,4.84,166.0,M,-34.4,M,,*5D
$GPRMC,210348.000,A,4305.1646,N,07740.8799,W,5.19,276.74,081019,,,A*70
$GPGGA,210348.250,4305.1645,N,07740.8803,W,1,04,4.83,165.9,M,-34.4,M,,*58
$GPRMC,210348.500,A,4305.1645,N,07740.8808,W,5.27,275.05,081019,,,A*79
$GPGGA,210348.750,4305.1645,N,07740.8812,W,1,04,6.56,165.8,M,-34.4,M,,*56
$GPRMC,210349.000,A,4305.1644,N,07740.8817,W,5.48,272.14,081019,,,A*7C
$GPGGA,210349.250,4305.1643,N,07740.8822,W,1,04,6.56,165.6,M,-34.4,M,,*59
$GPRMC,210349.500,A,4305.1642,N,07740.8827,W,5.49,268.91,081019,,,A*7B
$GPGGA,210349.750,4305.1641,N,07740.8832,W,1,04,6.56,165.5,M,-34.4,M,,*5C
$GPRMC,210350.000,A,4305.1641,N,07740.8837,W,5.73,267.01,081019,,,A*7B
$GPGGA,210350.250,4305.1633,N,07740.8840,W,1,05,3.29,165.3,M,-34.4,M,,*5B
$GPRMC,210350.500,A,4305.1627,N,07740.8844,W,5.69,244.96,081019,,,A*7E
$GPGGA,210350.750,4305.1622,N,07740.8848,W,1,05,3.29,165.1,M,-34.4,M,,*54
$GPRMC,210351.000,A,4305.1616,N,07740.8851,W,6.10,233.95,081019,,,A*72
$GPGGA,210351.250,4305.1610,N,07740.8854,W,1,05,3.29,164.9,M,-34.4,M,,*55
$GPRMC,210351.500,A,4305.1602,N,07740.8857,W,6.55,217.98,081019,,,A*7E
$GPGGA,210351.750,4305.1593,N,07740.8859,W,1,05,3.28,164.7,M,-34.4,M,,*5A
$GPRMC,210352.000,A,4305.1585,N,07740.8862,W,7.76,208.05,081019,,,A*78
$GPGGA,210352.250,4305.1577,N,07740.8865,W,1,05,3.28,164.5,M,-34.4,M,,*5B
$GPRMC,210352.500,A,4305.1570,N,07740.8868,W,8.26,203.17,081019,,,A*7F
$GPGGA,210352.750,4305.1561,N,07740.8869,W,1,05,3.28,164.4,M,-34.4,M,,*54
$GPRMC,210353.000,A,4305.1553,N,07740.8871,W,9.15,194.32,081019,,,A*79
$GPGGA,210353.250,4305.1545,N,07740.8873,W,1,05,3.29,164.2,M,-34.4,M,,*5A
$GPRMC,210353.500,A,4305.1537,N,07740.8875,W,9.40,189.89,081019,,,A*76
$GPGGA,210353.750,4305.1530,N,07740.8876,W,1,05,3.29,164.1,M,-34.4,M,,*5B
$GPRMC,210354.000,A,4305.1523,N,07740.8877,W,9.10,185.87,081019,,,A*74
$GPGGA,210354.250,4305.1515,N,07740.8877,W,1,05,3.28,163.9,M,-34.4,M,,*51
$GPRMC,210354.500,A,4305.1508,N,07740.8877,W,9.19,183.07,081019,,,A*7F
$GPGGA,210354.750,4305.1501,N,07740.8877,W,1,05,3.28,163.9,M,-34.4,M,,*51
$GPRMC,210355.000,A,4305.1494,N,07740.8878,W,8.94,182.10,081019,,,A*73
$GPGGA,210355.250,4305.1488,N,07740.8879,W,1,05,3.29,163.9,M,-34.4,M,,*5A
$GPRMC,210355.500,A,4305.1482,N,07740.8879,W,8.43,185.59,081019,,,A*70
$GPGGA,210355.750,4305.1476,N,07740.8881,W,1,05,3.29,163.8,M,-34.4,M,,*58
$GPRMC,210356.000,A,4305.1470,N,07740.8883,W,8.13,192.31,081019,,,A*73
$GPGGA,210356.250,4305.1465,N,07740.8885,W,1,05,3.28,163.8,M,-34.4,M,,*59
$GPRMC,210356.500,A,4305.1459,N,07740.8888,W,8.59,199.41,081019,,,A*74
$GPGGA,210356.750,4305.1453,N,07740.8892,W,1,05,3.28,164.0,M,-34.4,M,,*50
$GPRMC,210357.000,A,4305.1447,N,07740.8896,W,9.09,207.60,081019,,,A*73
$GPGGA,210357.250,4305.1442,N,07740.8901,W,1,05,3.29,164.0,M,-34.4,M,,*5E
$GPRMC,210357.500,A,4305.1439,N,07740.8908,W,9.71,223.42,081019,,,A*70
$GPGGA,210357.750,4305.1435,N,07740.8917,W,1,05,3.28,164.2,M,-34.4,M,,*5F
$GPRMC,210358.000,A,4305.1432,N,07740.8925,W,10.65,233.37,081019,,,A*40
$GPGGA,210358.250,4305.1429,N,07740.8935,W,1,05,3.21,164.3,M,-34.4,M,,*50
$GPRMC,210358.500,A,4305.1427,N,07740.8945,W,11.29,242.40,081019,,,A*48
$GPGGA,210358.750,4305.1426,N,07740.8955,W,1,05,3.21,164.5,M,-34.4,M,,*5A
$GPRMC,210359.000,A,4305.1424,N,07740.8965,W,10.87,249.01,081019,,,A*46
$GPGGA,210359.250,4305.1423,N,07740.8975,W,1,05,3.21,164.6,M,-34.4,M,,*5A
$GPRMC,210359.500,A,4305.1423,N,07740.8986,W,10.89,257.69,081019,,,A*46
$GPGGA,210359.750,4305.1424,N,07740.8997,W,1,05,3.21,164.7,M,-34.4,M,,*55
$GPRMC,210400.000,A,4305.1424,N,07740.9008,W,11.39,264.47,081019,,,A*47
$GPGGA,210400.250,4305.1425,N,07740.9019,W,1,05,3.21,164.7,M,-34.4,M,,*54
$GPRMC,210400.500,A,4305.1427,N,07740.9031,W,11.52,271.90,081019,,,A*48
$GPGGA,210400.750,4305.1429,N,07740.9042,W,1,05,3.21,164.8,M,-34.4,M,,*5C
$GPRMC,210401.000,A,4305.1430,N,07740.9054,W,11.93,275.79,081019,,,A*47
$GPGGA,210401.250,4305.1431,N,07740.9065,W,1,05,3.21,164.9,M,-34.4,M,,*55
$GPRMC,210401.500,A,4305.1434,N,07740.9077,W,12.03,278.66,081019,,,A*4E
$GPGGA,210401.750,4305.1436,N,07740.9089,W,1,05,3.21,165.0,M,-34.4,M,,*5D
$GPRMC,210402.000,A,4305.1438,N,07740.9101,W,12.13,280.43,081019,,,A*45
$GPGGA,210402.250,4305.1440,N,07740.9112,W,1,05,3.21,165.1,M,-34.4,M,,*58
$GPRMC,210402.500,A,4305.1442,N,07740.9124,W,12.38,281.15,081019,,,A*41
$GPGGA,210402.750,4305.1444,N,07740.9136,W,1,05,3.21,165.2,M,-34.4,M,,*5C
$GPRMC,210403.000,A,4305.1446,N,07740.9148,W,12.88,281.82,081019,,,A*4E
$GPGGA,210403.250,4305.1448,N,07740.9161,W,1,05,3.21,165.2,M,-34.4,M,,*56
$GPRMC,210403.500,A,4305.1450,N,07740.9173,W,13.75,283.28,081019,,,A*45
$GPGGA,210403.750,4305.1452,N,07740.9186,W,1,05,3.21,165.3,M,-34.4,M,,*50
$GPRMC,210404.000,A,4305.1455,N,07740.9200,W,14.35,282.98,081019,,,A*4C
$GPGGA,210404.250,4305.1457,N,07740.9215,W,1,05,3.21,165.4,M,-34.4,M,,*59
$GPRMC,210404.500,A,4305.1459,N,07740.9230,W,15.39,281.07,081019,,,A*4E
$GPGGA,210404.750,4305.1461,N,07740.9245,W,1,05,3.21,165.5,M,-34.4,M,,*5D
$GPRMC,210405.000,A,4305.1463,N,07740.9260,W,16.29,279.63,081019,,,A*41
$GPGGA,210405.250,4305.1465,N,07740.9276,W,1,05,3.21,165.6,M,-34.4,M,,*5E
$GPRMC,210405.500,A,4305.1466,N,07740.9292,W,17.04,277.44,081019,,,A*49
$GPGGA,210405.750,4305.1466,N,07740.9308,W,1,05,3.21,165.6,M,-34.4,M,,*50
$GPRMC,210406.000,A,4305.1467,N,07740.9324,W,17.31,275.37,081019,,,A*42
$GPGGA,210406.250,4305.1467,N,07740.9340,W,1,05,3.21,165.7,M,-34.4,M,,*5A
$GPRMC,210406.500,A,4305.1467,N,07740.9356,W,17.48,273.53,081019,,,A*48
$GPGGA,210406.750,4305.1466,N,07740.9372,W,1,05,3.21,165.7,M,-34.4,M,,*5F
$GPRMC,210407.000,A,4305.1466,N,07740.9388,W,17.43,272.33,081019,,,A*42
$GPGGA,210407.250,4305.1466,N,07740.9404,W,1,05,3.21,165.7,M,-34.4,M,,*5D
$GPRMC,210407.500,A,4305.1465,N,07740.9421,W,17.52,270.39,081019,,,A*48
$GPGGA,210407.750,4305.1465,N,07740.9437,W,1,05,3.21,165.8,M,-34.4,M,,*54
$GPRMC,210408.000,A,4305.1465,N,07740.9454,W,17.54,268.99,081019,,,A*45
$GPGGA,210408.250,4305.1464,N,07740.9470,W,1,05,3.21,165.9,M,-34.4,M,,*5D
$GPRMC,210408.500,A,4305.1464,N,07740.9486,W,17.48,268.47,081019,,,A*40
$GPGGA,210408.750,4305.1463,N,07740.9502,W,1,05,3.21,165.9,M,-34.4,M,,*5B
$GPRMC,210409.000,A,4305.1463,N,07740.9518,W,17.15,268.53,081019,,,A*48
$GPGGA,210409.250,4305.1462,N,07740.9534,W,1,05,3.21,166.0,M,-34.4,M,,*51
$GPRMC,210409.500,A,4305.1461,N,07740.9549,W,16.68,268.57,081019,,,A*44
$GPGGA,210409.750,4305.1461,N,07740.9564,W,1,05,3.21,166.0,M,-34.4,M,,*52
$GPRMC,210410.000,A,4305.1460,N,07740.9579,W,16.23,268.61,081019,,,A*41
$GPGGA,210410.250,4305.1458,N,07740.9593,W,1,05,3.21,166.0,M,-34.4,M,,*5D
$GPRMC,210410.500,A,4305.1458,N,07740.9608,W,15.98,270.03,081019,,,A*44
$GPGGA,210410.750,4305.1457,N,07740.9622,W,1,05,3.21,166.1,M,-34.4,M,,*5F
$GPRMC,210411.000,A,4305.1457,N,07740.9637,W,15.88,270.61,081019,,,A*46
$GPGGA,210411.250,4305.1458,N,07740.9652,W,1,05,3.21,166.1,M,-34.4,M,,*53
$GPRMC,210411.500,A,4305.1459,N,07740.9666,W,15.21,272.86,081019,,,A*41
$GPGGA,210411.750,4305.1459,N,07740.9679,W,1,05,3.21,166.2,M,-34.4,M,,*5D
$GPRMC,210412.000,A,4305.1460,N,07740.9692,W,13.92,274.55,081019,,,A*40
$GPGGA,210412.250,4305.1460,N,07740.9703,W,1,05,3.21,166.2,M,-34.4,M,,*5D
$GPRMC,210412.500,A,4305.1460,N,07740.9712,W,11.14,277.94,081019,,,A*4E
$GPGGA,210412.750,4305.1461,N,07740.9721,W,1,05,3.21,166.3,M,-34.4,M,,*58
$GPRMC,210413.000,A,4305.1461,N,07740.9729,W,9.04,279.38,081019,,,A*73
$GPGGA,210413.250,4305.1461,N,07740.9735,W,1,05,3.21,166.4,M,-34.4,M,,*5E
$GPRMC,210413.500,A,4305.1463,N,07740.9741,W,5.91,281.82,081019,,,A*7C
$GPGGA,210413.750,4305.1464,N,07740.9746,W,1,05,3.21,166.6,M,-34.4,M,,*58
$GPRMC,210414.000,A,4305.1465,N,07740.9750,W,4.20,285.86,081019,,,A*73
$GPGGA,210414.250,4305.1466,N,07740.9753,W,1,05,3.21,166.7,M,-34.4,M,,*5D
$GPRMC,210414.500,A,4305.1467,N,07740.9755,W,2.72,291.02,081019,,,A*79
$GPGGA,210414.750,4305.1468,N,07740.9758,W,1,05,3.21,166.8,M,-34.4,M,,*52
$GPRMC,210415.000,A,4305.1469,N,07740.9760,W,2.66,291.02,081019,,,A*70
$GPGGA,210415.250,4305.1471,N,07740.9765,W,1,05,3.21,167.1,M,-34.4,M,,*58
$GPRMC,210415.500,A,4305.1473,N,07740.9770,W,3.95,291.22,081019,,,A*70
$GPGGA,210415.750,4305.1474,N,07740.9775,W,1,05,3.21,167.5,M,-34.4,M,,*5D
$GPRMC,210416.000,A,4305.1475,N,07740.9779,W,4.76,290.34,081019,,,A*75
$GPGGA,210416.250,4305.1475,N,07740.9785,W,1,05,3.21,167.7,M,-34.4,M,,*57
$GPRMC,210416.500,A,4305.1476,N,07740.9792,W,6.07,280.46,081019,,,A*76
$GPGGA,210416.750,4305.1476,N,07740.9799,W,1,05,3.21,168.0,M,-34.4,M,,*54
$GPRMC,210417.000,A,4305.1477,N,07740.9806,W,7.08,275.83,081019,,,A*7C
$GPGGA,210417.250,4305.1476,N,07740.9813,W,1,05,3.21,168.1,M,-34.4,M,,*5C
$GPRMC,210417.500,A,4305.1474,N,07740.9821,W,8.08,272.92,081019,,,A*77
$GPGGA,210417.750,4305.1472,N,07740.9828,W,1,05,3.20,168.3,M,-34.4,M,,*56
$GPRMC,210418.000,A,4305.1468,N,07740.9834,W,7.89,267.22,081019,,,A*7D
$GPGGA,210418.250,4305.1460,N,07740.9838,W,1,05,3.20,168.5,M,-34.4,M,,*58
$GPRMC,210418.500,A,4305.1451,N,07740.9841,W,6.94,248.48,081019,,,A*7C
$GPGGA,210418.750,4305.1435,N,07740.9842,W,1,05,3.20,168.8,M,-34.4,M,,*5D
$GPRMC,210419.000,A,4305.1426,N,07740.9846,W,7.64,217.56,081019,,,A*74
$GPGGA,210419.250,4305.1408,N,07740.9845,W,1,05,3.20,169.1,M,-34.4,M,,*58
$GPRMC,210419.500,A,4305.1396,N,07740.9846,W,10.89,194.11,081019,,,A*43
$GPGGA,210419.750,4305.1384,N,07740.9847,W,1,05,3.21,169.3,M,-34.4,M,,*5F
$GPRMC,210420.000,A,4305.1374,N,07740.9849,W,12.31,190.55,081019,,,A*4A
$GPGGA,210420.250,4305.1364,N,07740.9851,W,1,05,3.20,169.6,M,-34.4,M,,*5D
$GPRMC,210420.500,A,4305.1354,N,07740.9853,W,12.99,191.41,081019,,,A*40
$GPGGA,210420.750,4305.1345,N,07740.9858,W,1,05,3.21,169.8,M,-34.4,M,,*5D
$GPRMC,210421.000,A,4305.1336,N,07740.9862,W,13.54,198.65,081019,,,A*4D
$GPGGA,210421.250,4305.1327,N,07740.9868,W,1,05,3.20,170.0,M,-34.4,M,,*5F
$GPRMC,210421.500,A,4305.1317,N,07740.9873,W,14.33,203.67,081019,,,A*4E
$GPGGA,210421.750,4305.1305,N,07740.9880,W,1,05,3.20,170.3,M,-34.4,M,,*5F
$GPRMC,210422.000,A,4305.1295,N,07740.9887,W,15.99,207.67,081019,,,A*4D
$GPGGA,210422.250,4305.1285,N,07740.9895,W,1,05,3.20,170.5,M,-34.4,M,,*52
$GPRMC,210422.500,A,4305.1275,N,07740.9905,W,17.10,211.78,081019,,,A*47
$GPGGA,210422.750,4305.1265,N,07740.9915,W,1,05,3.20,170.7,M,-34.4,M,,*52
$GPRMC,210423.000,A,4305.1255,N,07740.9926,W,18.11,216.31,081019,,,A*44
$GPGGA,210423.250,4305.1247,N,07740.9939,W,1,05,3.20,170.8,M,-34.4,M,,*57
$GPRMC,210423.500,A,4305.1239,N,07740.9952,W,18.87,221.24,081019,,,A*47
$GPGGA,210423.750,4305.1231,N,07740.9966,W,1,05,3.20,170.9,M,-34.4,M,,*58
$GPRMC,210424.000,A,4305.1223,N,07740.9981,W,19.65,226.17,081019,,,A*4A
$GPGGA,210424.250,4305.1214,N,07740.9996,W,1,05,3.20,171.1,M,-34.4,M,,*5B
$GPRMC,210424.500,A,4305.1206,N,07741.0011,W,20.51,229.39,081019,,,A*4E
$GPGGA,210424.750,4305.1197,N,07741.0027,W,1,05,3.20,171.3,M,-34.4,M,,*5F
$GPRMC,210425.000,A,4305.1188,N,07741.0043,W,21.36,231.04,081019,,,A*4F
$GPGGA,210425.250,4305.1180,N,07741.0060,W,1,05,3.20,171.5,M,-34.4,M,,*58
$GPRMC,210425.500,A,4305.1171,N,07741.0077,W,21.55,232.38,081019,,,A*42
$GPGGA,210425.750,4305.1162,N,07741.0093,W,1,05,3.20,171.6,M,-34.4,M,,*5E
$GPRMC,210426.000,A,4305.1153,N,07741.0109,W,21.55,232.61,081019,,,A*40
$GPGGA,210426.250,4305.1143,N,07741.0125,W,1,05,3.20,171.8,M,-34.4,M,,*59
$GPRMC,210426.500,A,4305.1135,N,07741.0141,W,21.33,232.93,081019,,,A*44
$GPGGA,210426.750,4305.1127,N,07741.0158,W,1,05,3.20,172.0,M,-34.4,M,,*5F
$GPRMC,210427.000,A,4305.1119,N,07741.0174,W,21.23,233.46,081019,,,A*40
$GPGGA,210427.250,4305.1111,N,07741.0190,W,1,05,3.20,172.1,M,-34.4,M,,*5B
$GPRMC,210427.500,A,4305.1103,N,07741.0207,W,21.15,233.65,081019,,,A*4D
$GPGGA,210427.750,4305.1095,N,07741.0223,W,1,05,3.20,172.3,M,-34.4,M,,*5A
$GPRMC,210428.000,A,4305.1088,N,07741.0240,W,21.03,233.81,081019,,,A*4B
$GPGGA,210428.250,4305.1081,N,07741.0256,W,1,05,3.20,172.4,M,-34.4,M,,*50
$GPRMC,210428.500,A,4305.1074,N,07741.0274,W,20.96,234.93,081019,,,A*43
$GPGGA,210428.750,4305.1068,N,07741.0292,W,1,05,3.20,172.4,M,-34.4,M,,*5A
$GPRMC,210429.000,A,4305.1061,N,07741.0310,W,21.46,237.19,081019,,,A*4D
$GPGGA,210429.250,4305.1057,N,07741.0330,W,1,05,3.20,172.5,M,-34.4,M,,*5A
$GPRMC,210429.500,A,4305.1056,N,07741.0350,W,21.50,243.43,081019,,,A*43
$GPGGA,210429.750,4305.1062,N,07741.0373,W,1,05,3.20,172.5,M,-34.4,M,,*5E
$GPRMC,210430.000,A,4305.1058,N,07741.0393,W,21.53,251.26,081019,,,A*4C
$GPGGA,210430.250,4305.1059,N,07741.0414,W,1,05,3.20,172.6,M,-34.4,M,,*5E
$GPRMC,210430.500,A,4305.1056,N,07741.0434,W,21.31,260.44,081019,,,A*4F
$GPGGA,210430.750,4305.1056,N,07741.0454,W,1,05,3.20,172.4,M,-34.4,M,,*52
$GPRMC,210431.000,A,4305.1055,N,07741.0474,W,21.12,266.15,081019,,,A*4F
$GPGGA,210431.250,4305.1056,N,07741.0495,W,1,05,3.20,172.5,M,-34.4,M,,*5A
$GPRMC,210431.500,A,4305.1059,N,07741.0515,W,21.01,275.55,081019,,,A*44
$GPGGA,210431.750,4305.1062,N,07741.0534,W,1,05,3.20,172.4,M,-34.4,M,,*53
$GPRMC,210432.000,A,4305.1064,N,07741.0552,W,20.49,280.74,081019,,,A*4B
$GPGGA,210432.250,4305.1065,N,07741.0570,W,1,05,3.20,172.6,M,-34.4,M,,*50
$GPRMC,210432.500,A,4305.1069,N,07741.0588,W,20.09,286.50,081019,,,A*40
$GPGGA,210432.750,4305.1071,N,07741.0603,W,1,05,3.20,172.5,M,-34.4,M,,*54
$GPRMC,210433.000,A,4305.1074,N,07741.0617,W,18.65,291.78,081019,,,A*40
$GPGGA,210433.250,4305.1079,N,07741.0629,W,1,05,3.20,172.6,M,-34.4,M,,*53
$GPRMC,210433.500,A,4305.1083,N,07741.0640,W,16.31,299.06,081019,,,A*41
$GPGGA,210433.750,4305.1088,N,07741.0650,W,1,05,3.20,172.7,M,-34.4,M,,*57
$GPRMC,210434.000,A,4305.1094,N,07741.0660,W,14.77,303.49,081019,,,A*4E
$GPGGA,210434.250,4305.1098,N,07741.0671,W,1,05,3.20,172.9,M,-34.4,M,,*59
$GPRMC,210434.500,A,4305.1102,N,07741.0681,W,12.99,302.71,081019,,,A*46
$GPGGA,210434.750,4305.1106,N,07741.0689,W,1,05,3.20,173.1,M,-34.4,M,,*54
$GPRMC,210435.000,A,4305.1110,N,07741.0698,W,11.73,303.23,081019,,,A*48
$GPGGA,210435.250,4305.1113,N,07741.0706,W,1,05,3.20,173.3,M,-34.4,M,,*50
$GPRMC,210435.500,A,4305.1116,N,07741.0713,W,9.59,301.18,081019,,,A*72
$GPGGA,210435.750,4305.1118,N,07741.0719,W,1,05,3.20,173.5,M,-34.4,M,,*56
$GPRMC,210436.250,A,4305.1123,N,07741.0730,W,7.12,299.44,081019,,,A*7C
$GPGGA,210436.500,4305.1124,N,07741.0733,W,1,05,3.20,173.7,M,-34.4,M,,*57
$GPRMC,210437.000,A,4305.1125,N,07741.0738,W,4.13,295.54,081019,,,A*7B
$GPGGA,210437.250,4305.1125,N,07741.0739,W,1,05,3.20,174.0,M,-34.4,M,,*5F
$GPRMC,210437.500,A,4305.1124,N,07741.0740,W,2.21,294.26,081019,,,A*73
$GPGGA,210437.750,4305.1124,N,07741.0737,W,1,05,3.20,174.1,M,-34.4,M,,*54
$GPRMC,210438.000,A,4305.1124,N,07741.0732,W,0.08,294.26,081019,,,A*75
$GPGGA,210438.250,4305.1123,N,07741.0727,W,1,05,3.20,174.0,M,-34.4,M,,*59
$GPRMC,210438.500,A,4305.1122,N,07741.0724,W,0.11,294.26,081019,,,A*79
$GPGGA,210438.750,4305.1121,N,07741.0721,W,1,05,3.20,173.9,M,-34.4,M,,*56
$GPRMC,210439.000,A,4305.1120,N,07741.0718,W,0.13,294.26,081019,,,A*72
$GPGGA,210439.250,4305.1120,N,07741.0715,W,1,05,3.20,173.8,M,-34.4,M,,*55
$GPRMC,210439.500,A,4305.1119,N,07741.0711,W,0.09,294.26,081019,,,A*7F
$GPGGA,210439.750,4305.1119,N,07741.0709,W,1,05,3.20,173.6,M,-34.4,M,,*59
$GPRMC,210440.000,A,4305.1119,N,07741.0708,W,0.05,294.26,081019,,,A*70
$GPGGA,210440.250,4305.1119,N,07741.0706,W,1,05,3.20,173.5,M,-34.4,M,,*5E
$GPRMC,210440.500,A,4305.1120,N,07741.0704,W,0.04,294.26,081019,,,A*72
$GPGGA,210440.750,4305.1120,N,07741.0703,W,1,05,3.20,173.3,M,-34.4,M,,*52
$GPRMC,210441.000,A,4305.1121,N,07741.0702,W,0.05,294.26,081019,,,A*70
$GPGGA,210441.250,4305.1122,N,07741.0701,W,1,05,3.27,173.3,M,-34.4,M,,*51
$GPRMC,210441.500,A,4305.1123,N,07741.0700,W,0.06,294.26,081019,,,A*76
$GPGGA,210441.750,4305.1124,N,07741.0700,W,1,05,3.27,173.2,M,-34.4,M,,*52
$GPRMC,210442.000,A,4305.1125,N,07741.0700,W,0.06,294.26,081019,,,A*76
$GPGGA,210442.250,4305.1125,N,07741.0699,W,1,05,3.27,173.2,M,-34.4,M,,*54
$GPRMC,210442.500,A,4305.1126,N,07741.0699,W,0.06,294.26,081019,,,A*71
$GPGGA,210442.750,4305.1127,N,07741.0698,W,1,05,3.20,173.1,M,-34.4,M,,*56
$GPRMC,210443.000,A,4305.1127,N,07741.0698,W,0.06,294.26,081019,,,A*75
$GPGGA,210443.250,4305.1128,N,07741.0698,W,1,05,3.20,173.1,M,-34.4,M,,*5D
$GPRMC,210443.500,A,4305.1128,N,07741.0698,W,0.05,294.26,081019,,,A*7C
$GPGGA,210443.750,4305.1129,N,07741.0699,W,1,05,3.20,173.1,M,-34.4,M,,*58
$GPRMC,210444.000,A,4305.1129,N,07741.0699,W,0.05,294.26,081019,,,A*7E
$GPGGA,210444.250,4305.1129,N,07741.0699,W,1,05,3.19,173.1,M,-34.4,M,,*50
$GPRMC,210444.500,A,4305.1130,N,07741.0699,W,0.06,294.26,081019,,,A*70
$GPGGA,210444.750,4305.1130,N,07741.0700,W,1,05,3.19,173.1,M,-34.4,M,,*5C
$GPRMC,210445.000,A,4305.1130,N,07741.0700,W,0.06,294.26,081019,,,A*75
$GPGGA,210445.250,4305.1131,N,07741.0700,W,1,05,3.20,173.1,M,-34.4,M,,*53
$GPRMC,210445.500,A,4305.1131,N,07741.0700,W,0.06,294.26,081019,,,A*71
$GPGGA,210445.750,4305.1131,N,07741.0701,W,1,05,3.20,173.1,M,-34.4,M,,*57
$GPRMC,210446.000,A,4305.1132,N,07741.0701,W,0.06,294.26,081019,,,A*75
$GPGGA,210446.250,4305.1132,N,07741.0701,W,1,05,3.20,173.1,M,-34.4,M,,*52
$GPRMC,210446.500,A,4305.1133,N,07741.0701,W,0.07,294.26,081019,,,A*70
$GPGGA,210446.750,4305.1133,N,07741.0702,W,1,05,3.19,173.1,M,-34.4,M,,*5F
$GPRMC,210447.000,A,4305.1133,N,07741.0702,W,0.07,294.26,081019,,,A*77
$GPGGA,210447.250,4305.1134,N,07741.0703,W,1,05,3.20,173.1,M,-34.4,M,,*57
$GPRMC,210447.500,A,4305.1134,N,07741.0703,W,1.24,294.26,081019,,,A*74
$GPGGA,210447.750,4305.1135,N,07741.0704,W,1,05,3.20,173.1,M,-34.4,M,,*54
$GPRMC,210448.000,A,4305.1136,N,07741.0708,W,3.38,313.31,081019,,,A*70
$GPGGA,210448.250,4305.1138,N,07741.0714,W,1,05,3.20,173.0,M,-34.4,M,,*53
$GPRMC,210448.500,A,4305.1142,N,07741.0722,W,7.50,304.50,081019,,,A*75
$GPGGA,210448.750,4305.1144,N,07741.0732,W,1,05,3.19,172.8,M,-34.4,M,,*5A
$GPRMC,210449.000,A,4305.1147,N,07741.0742,W,10.37,296.33,081019,,,A*4A
$GPGGA,210449.250,4305.1151,N,07741.0754,W,1,05,3.20,172.7,M,-34.4,M,,*5F
$GPRMC,210449.500,A,4305.1156,N,07741.0766,W,14.07,296.76,081019,,,A*4F
$GPGGA,210449.750,4305.1162,N,07741.0779,W,1,05,3.19,172.5,M,-34.4,M,,*5D
$GPRMC,210450.000,A,4305.1166,N,07741.0792,W,15.71,298.00,081019,,,A*45
$GPGGA,210450.250,4305.1172,N,07741.0806,W,1,05,3.19,172.3,M,-34.4,M,,*50
$GPRMC,210450.500,A,4305.1177,N,07741.0819,W,16.53,298.61,081019,,,A*48
$GPGGA,210450.750,4305.1181,N,07741.0834,W,1,05,3.20,171.9,M,-34.4,M,,*5B
$GPRMC,210451.000,A,4305.1186,N,07741.0849,W,16.89,297.01,081019,,,A*49
$GPGGA,210451.250,4305.1190,N,07741.0864,W,1,05,3.19,171.6,M,-34.4,M,,*5F
$GPRMC,210451.500,A,4305.1193,N,07741.0879,W,16.96,294.86,081019,,,A*49
$GPGGA,210451.750,4305.1197,N,07741.0894,W,1,05,3.19,171.4,M,-34.4,M,,*50
$GPRMC,210452.000,A,4305.1202,N,07741.0910,W,16.93,293.42,081019,,,A*40
$GPGGA,210452.250,4305.1206,N,07741.0926,W,1,05,3.19,171.2,M,-34.4,M,,*53
$GPRMC,210452.500,A,4305.1210,N,07741.0942,W,16.88,292.43,081019,,,A*4B
$GPGGA,210452.750,4305.1215,N,07741.0957,W,1,05,3.19,171.1,M,-34.4,M,,*51
$GPRMC,210453.000,A,4305.1219,N,07741.0973,W,16.59,292.56,081019,,,A*4C
$GPGGA,210453.250,4305.1222,N,07741.0988,W,1,05,3.19,170.9,M,-34.4,M,,*5A
$GPRMC,210453.500,A,4305.1227,N,07741.1003,W,16.36,292.84,081019,,,A*4D
$GPGGA,210453.750,4305.1230,N,07741.1017,W,1,05,3.19,170.6,M,-34.4,M,,*5D
$GPRMC,210454.000,A,4305.1234,N,07741.1031,W,15.78,293.61,081019,,,A*4F
$GPGGA,210454.250,4305.1237,N,07741.1044,W,1,05,3.20,170.4,M,-34.4,M,,*56
$GPRMC,210454.500,A,4305.1241,N,07741.1057,W,14.83,295.10,081019,,,A*4D
$GPGGA,210454.750,4305.1245,N,07741.1069,W,1,05,3.19,170.1,M,-34.4,M,,*56
$GPRMC,210455.000,A,4305.1250,N,07741.1080,W,13.70,298.28,081019,,,A*4E
$GPGGA,210455.250,4305.1254,N,07741.1091,W,1,05,3.19,169.9,M,-34.4,M,,*55
$GPRMC,210455.500,A,4305.1257,N,07741.1101,W,12.05,297.49,081019,,,A*4F
$GPGGA,210455.750,4305.1260,N,07741.1111,W,1,05,3.19,169.6,M,-34.4,M,,*51
$GPRMC,210456.000,A,4305.1263,N,07741.1121,W,11.56,297.11,081019,,,A*44
$GPGGA,210456.250,4305.1267,N,07741.1130,W,1,05,3.19,169.5,M,-34.4,M,,*50
$GPRMC,210456.500,A,4305.1270,N,07741.1140,W,11.05,297.18,081019,,,A*4B
$GPGGA,210456.750,4305.1273,N,07741.1149,W,1,05,3.19,169.4,M,-34.4,M,,*5F
$GPRMC,210457.000,A,4305.1277,N,07741.1157,W,10.56,298.85,081019,,,A*42
$GPGGA,210457.250,4305.1280,N,07741.1165,W,1,05,3.19,169.3,M,-34.4,M,,*5E
$GPRMC,210457.500,A,4305.1283,N,07741.1173,W,9.36,300.13,081019,,,A*7B
$GPGGA,210457.750,4305.1286,N,07741.1179,W,1,05,3.19,169.3,M,-34.4,M,,*50
$GPRMC,210458.000,A,4305.1289,N,07741.1185,W,8.02,301.42,081019,,,A*71
$GPGGA,210458.250,4305.1291,N,07741.1190,W,1,05,3.19,169.2,M,-34.4,M,,*5A
$GPRMC,210458.500,A,4305.1292,N,07741.1194,W,5.22,296.28,081019,,,A*72
$GPGGA,210458.750,4305.1292,N,07741.1196,W,1,05,3.19,169.0,M,-34.4,M,,*58
$GPRMC,210459.000,A,4305.1293,N,07741.1199,W,3.33,289.96,081019,,,A*77
$GPGGA,210459.250,4305.1293,N,07741.1200,W,1,05,3.19,168.9,M,-34.4,M,,*59
$GPRMC,210459.500,A,4305.1292,N,07741.1201,W,1.43,289.96,081019,,,A*74
$GPGGA,210459.750,4305.1292,N,07741.1200,W,1,05,3.19,168.8,M,-34.4,M,,*5C
$GPRMC,210500.000,A,4305.1292,N,07741.1200,W,0.78,289.96,081019,,,A*74
$GPGGA,210500.250,4305.1291,N,07741.1199,W,1,05,3.19,168.7,M,-34.4,M,,*5B
$GPRMC,210500.500,A,4305.1291,N,07741.1198,W,0.41,289.96,081019,,,A*7A
$GPGGA,210500.750,4305.1292,N,07741.1197,W,1,05,3.19,168.6,M,-34.4,M,,*52
$GPRMC,210501.000,A,4305.1292,N,07741.1196,W,0.26,289.96,081019,,,A*72
$GPGGA,210501.250,4305.1292,N,07741.1195,W,1,05,3.19,168.4,M,-34.4,M,,*56
$GPRMC,210501.500,A,4305.1292,N,07741.1194,W,0.10,289.96,081019,,,A*70
$GPGGA,210501.750,4305.1293,N,07741.1193,W,1,05,3.19,168.3,M,-34.4,M,,*53
$GPRMC,210502.000,A,4305.1293,N,07741.1192,W,0.27,289.96,081019,,,A*75
$GPGGA,210502.250,4305.1293,N,07741.1191,W,1,05,3.19,168.1,M,-34.4,M,,*55
$GPRMC,210502.500,A,4305.1294,N,07741.1191,W,0.38,289.96,081019,,,A*7A
$GPGGA,210502.750,4305.1295,N,07741.1191,W,1,05,3.26,168.0,M,-34.4,M,,*5B
$GPRMC,210503.000,A,4305.1296,N,07741.1191,W,0.56,289.96,081019,,,A*74
$GPGGA,210503.250,4305.1296,N,07741.1191,W,1,05,3.27,168.1,M,-34.4,M,,*5C
$GPRMC,210503.500,A,4305.1296,N,07741.1191,W,0.68,289.96,081019,,,A*7C
$GPGGA,210503.750,4305.1297,N,07741.1191,W,1,05,3.27,168.1,M,-34.4,M,,*58
$GPRMC,210504.000,A,4305.1297,N,07741.1191,W,0.79,289.96,081019,,,A*7F
$GPGGA,210504.250,4305.1298,N,07741.1191,W,1,05,3.27,168.1,M,-34.4,M,,*55
$GPRMC,210504.500,A,4305.1299,N,07741.1191,W,0.88,289.96,081019,,,A*7A
$GPGGA,210504.750,4305.1299,N,07741.1191,W,1,05,3.27,168.1,M,-34.4,M,,*51
$GPRMC,210505.000,A,4305.1300,N,07741.1191,W,0.92,289.96,081019,,,A*74
$GPGGA,210505.250,4305.1300,N,07741.1192,W,1,05,3.27,168.1,M,-34.4,M,,*57
$GPRMC,210505.500,A,4305.1301,N,07741.1192,W,0.94,289.96,081019,,,A*75
$GPGGA,210505.750,4305.1302,N,07741.1192,W,1,05,3.26,168.1,M,-34.4,M,,*51
$GPRMC,210506.000,A,4305.1302,N,07741.1192,W,0.91,289.96,081019,,,A*75
$GPGGA,210506.250,4305.1303,N,07741.1192,W,1,05,3.26,168.2,M,-34.4,M,,*55
$GPRMC,210506.500,A,4305.1304,N,07741.1193,W,0.92,289.96,081019,,,A*74
$GPGGA,210506.750,4305.1304,N,07741.1193,W,1,05,3.19,168.2,M,-34.4,M,,*5A
$GPRMC,210507.000,A,4305.1305,N,07741.1193,W,0.98,289.96,081019,,,A*7B
$GPGGA,210507.250,4305.1305,N,07741.1193,W,1,05,3.18,168.2,M,-34.4,M,,*5E
$GPRMC,210507.500,A,4305.1306,N,07741.1194,W,1.13,289.96,081019,,,A*78
$GPGGA,210507.750,4305.1307,N,07741.1194,W,1,05,3.19,168.2,M,-34.4,M,,*5F
$GPRMC,210508.000,A,4305.1308,N,07741.1195,W,1.30,289.96,081019,,,A*7C
$GPGGA,210508.250,4305.1308,N,07741.1196,W,1,05,3.19,168.2,M,-34.4,M,,*58
$GPRMC,210508.500,A,4305.1309,N,07741.1196,W,1.62,289.96,081019,,,A*7C
$GPGGA,210508.750,4305.1310,N,07741.1197,W,1,05,3.19,168.3,M,-34.4,M,,*54
$GPRMC,210509.000,A,4305.1311,N,07741.1199,W,1.91,289.96,081019,,,A*72
$GPGGA,210509.250,4305.1312,N,07741.1200,W,1,05,3.19,168.3,M,-34.4,M,,*5F
$GPRMC,210509.500,A,4305.1314,N,07741.1203,W,2.37,314.14,081019,,,A*72
$GPGGA,210509.750,4305.1316,N,07741.1206,W,1,05,3.18,168.3,M,-34.4,M,,*59
$GPRMC,210510.000,A,4305.1317,N,07741.1208,W,3.02,313.05,081019,,,A*77
$GPGGA,210510.250,4305.1319,N,07741.1212,W,1,05,3.19,168.3,M,-34.4,M,,*5F
$GPRMC,210510.500,A,4305.1323,N,07741.1217,W,5.61,312.56,081019,,,A*7F
$GPGGA,210510.750,4305.1327,N,07741.1222,W,1,05,3.19,168.3,M,-34.4,M,,*54
$GPRMC,210511.000,A,4305.1331,N,07741.1227,W,7.04,316.09,081019,,,A*74
$GPGGA,210511.250,4305.1336,N,07741.1232,W,1,05,3.19,168.4,M,-34.4,M,,*56
$GPRMC,210511.500,A,4305.1343,N,07741.1237,W,9.20,322.48,081019,,,A*7F
$GPGGA,210511.750,4305.1350,N,07741.1241,W,1,05,3.19,168.4,M,-34.4,M,,*57
$GPRMC,210512.000,A,4305.1357,N,07741.1246,W,10.04,329.02,081019,,,A*41
$GPGGA,210512.250,4305.1366,N,07741.1248,W,1,05,3.18,168.5,M,-34.4,M,,*5D
$GPRMC,210512.500,A,4305.1374,N,07741.1251,W,11.15,339.56,081019,,,A*42
$GPGGA,210512.750,4305.1384,N,07741.1251,W,1,05,3.18,168.5,M,-34.4,M,,*5C
$GPRMC,210513.000,A,4305.1396,N,07741.1251,W,12.33,352.74,081019,,,A*40
$GPGGA,210513.250,4305.1408,N,07741.1251,W,1,05,3.26,168.6,M,-34.4,M,,*55
$GPRMC,210513.500,A,4305.1419,N,07741.1249,W,13.25,2.67,081019,,,A*4E
$GPGGA,210513.750,4305.1430,N,07741.1245,W,1,05,3.26,168.7,M,-34.4,M,,*5F
$GPRMC,210514.000,A,4305.1441,N,07741.1242,W,14.40,11.69,081019,,,A*72
$GPGGA,210514.250,4305.1453,N,07741.1237,W,1,05,3.26,168.7,M,-34.4,M,,*5D
$GPRMC,210514.500,A,4305.1465,N,07741.1230,W,16.18,20.58,081019,,,A*7B
$GPGGA,210514.750,4305.1478,N,07741.1223,W,1,05,3.18,168.7,M,-34.4,M,,*59
$GPRMC,210515.000,A,4305.1490,N,07741.1216,W,17.24,24.96,081019,,,A*79
$GPGGA,210515.250,4305.1502,N,07741.1208,W,1,05,3.18,168.8,M,-34.4,M,,*57
$GPRMC,210515.500,A,4305.1514,N,07741.1199,W,18.52,29.35,081019,,,A*7F
$GPGGA,210515.750,4305.1525,N,07741.1190,W,1,05,3.19,168.9,M,-34.4,M,,*55
$GPRMC,210516.000,A,4305.1537,N,07741.1180,W,19.15,31.42,081019,,,A*7B
$GPGGA,210516.250,4305.1548,N,07741.1170,W,1,05,3.18,169.0,M,-34.4,M,,*5F
$GPRMC,210516.500,A,4305.1559,N,07741.1160,W,19.27,32.97,081019,,,A*72
$GPGGA,210516.750,4305.1571,N,07741.1149,W,1,05,3.18,169.1,M,-34.4,M,,*5B
$GPRMC,210517.000,A,4305.1582,N,07741.1139,W,19.63,34.36,081019,,,A*71
$GPGGA,210517.250,4305.1594,N,07741.1128,W,1,05,3.18,169.3,M,-34.4,M,,*51
$GPRMC,210517.500,A,4305.1605,N,07741.1118,W,19.73,35.11,081019,,,A*7E
$GPGGA,210517.750,4305.1617,N,07741.1107,W,1,05,3.18,169.4,M,-34.4,M,,*56
$GPRMC,210518.000,A,4305.1629,N,07741.1096,W,19.82,35.31,081019,,,A*71
$GPGGA,210518.250,4305.1641,N,07741.1085,W,1,05,3.18,169.5,M,-34.4,M,,*55
$GPRMC,210518.500,A,4305.1652,N,07741.1075,W,19.90,35.30,081019,,,A*77
$GPGGA,210518.750,4305.1664,N,07741.1065,W,1,05,3.18,169.6,M,-34.4,M,,*5A
$GPRMC,210519.000,A,4305.1676,N,07741.1054,W,19.85,34.77,081019,,,A*70
$GPGGA,210519.250,4305.1688,N,07741.1044,W,1,05,3.18,169.7,M,-34.4,M,,*5E
$GPRMC,210519.500,A,4305.1699,N,07741.1034,W,19.54,34.11,081019,,,A*7E
$GPGGA,210519.750,4305.1711,N,07741.1024,W,1,05,3.18,169.8,M,-34.4,M,,*53
$GPRMC,210520.000,A,4305.1722,N,07741.1014,W,19.42,33.78,081019,,,A*7D
$GPGGA,210520.250,4305.1733,N,07741.1004,W,1,05,3.18,169.9,M,-34.4,M,,*5F
$GPRMC,210520.500,A,4305.1744,N,07741.0994,W,19.15,33.31,081019,,,A*77
$GPGGA,210520.750,4305.1755,N,07741.0984,W,1,05,3.18,169.9,M,-34.4,M,,*5A
$GPRMC,210521.000,A,4305.1767,N,07741.0974,W,19.09,33.60,081019,,,A*75
$GPGGA,210521.250,4305.1777,N,07741.0964,W,1,05,3.18,170.0,M,-34.4,M,,*51
$GPRMC,210521.500,A,4305.1788,N,07741.0954,W,18.87,33.64,081019,,,A*70
$GPGGA,210521.750,4305.1797,N,07741.0944,W,1,05,3.18,170.0,M,-34.4,M,,*58
$GPRMC,210522.000,A,4305.1807,N,07741.0934,W,18.76,34.26,081019,,,A*77
$GPGGA,210522.250,4305.1817,N,07741.0923,W,1,05,3.18,170.0,M,-34.4,M,,*58
$GPRMC,210522.500,A,4305.1827,N,07741.0913,W,18.37,34.95,081019,,,A*78
$GPGGA,210522.750,4305.1837,N,07741.0902,W,1,05,3.18,170.0,M,-34.4,M,,*5C
$GPRMC,210523.000,A,4305.1847,N,07741.0892,W,18.16,35.20,081019,,,A*7E
$GPGGA,210523.250,4305.1857,N,07741.0881,W,1,05,3.18,170.0,M,-34.4,M,,*54
$GPRMC,210523.500,A,4305.1866,N,07741.0871,W,17.60,35.40,081019,,,A*7D
$GPGGA,210523.750,4305.1877,N,07741.0857,W,1,05,3.18,169.4,M,-34.4,M,,*54
$GPRMC,210524.000,A,4305.1886,N,07741.0846,W,16.57,38.11,081019,,,A*79
$GPGGA,210524.250,4305.1895,N,07741.0836,W,1,05,3.18,168.5,M,-34.4,M,,*5D
$GPRMC,210524.500,A,4305.1904,N,07741.0826,W,16.33,37.88,081019,,,A*7C
$GPGGA,210524.750,4305.1913,N,07741.0816,W,1,05,3.18,167.7,M,-34.4,M,,*58
$GPRMC,210525.000,A,4305.1923,N,07741.0807,W,16.28,36.82,081019,,,A*7F
$GPGGA,210525.250,4305.1931,N,07741.0798,W,1,05,3.18,166.9,M,-34.4,M,,*5A
$GPRMC,210525.500,A,4305.1939,N,07741.0791,W,15.91,36.67,081019,,,A*7B
$GPGGA,210525.750,4305.1947,N,07741.0783,W,1,05,3.18,166.1,M,-34.4,M,,*5C
$GPRMC,210526.000,A,4305.1955,N,07741.0774,W,15.55,36.37,081019,,,A*71
$GPGGA,210526.250,4305.1962,N,07741.0765,W,1,05,3.18,165.4,M,-34.4,M,,*53
$GPRMC,210526.500,A,4305.1968,N,07741.0757,W,15.12,36.70,081019,,,A*7B
$GPGGA,210526.750,4305.1975,N,07741.0748,W,1,05,3.18,164.7,M,-34.4,M,,*5D
$GPRMC,210527.000,A,4305.1983,N,07741.0740,W,14.87,36.54,081019,,,A*77
$GPGGA,210527.250,4305.1989,N,07741.0731,W,1,05,3.18,164.1,M,-34.4,M,,*52
$GPRMC,210527.500,A,4305.1996,N,07741.0723,W,14.56,36.31,081019,,,A*7C
$GPGGA,210527.750,4305.2003,N,07741.0715,W,1,05,3.18,163.7,M,-34.4,M,,*58
$GPRMC,210528.000,A,4305.2009,N,07741.0707,W,14.32,35.85,081019,,,A*72
$GPGGA,210528.250,4305.2016,N,07741.0700,W,1,05,3.18,163.4,M,-34.4,M,,*51
$GPRMC,210528.500,A,4305.2023,N,07741.0692,W,14.17,35.64,081019,,,A*7A
$GPGGA,210528.750,4305.2029,N,07741.0685,W,1,05,3.18,163.1,M,-34.4,M,,*51
$GPRMC,210529.000,A,4305.2036,N,07741.0677,W,14.03,35.20,081019,,,A*74
$GPGGA,210529.250,4305.2043,N,07741.0670,W,1,05,3.18,162.8,M,-34.4,M,,*5B
$GPRMC,210529.500,A,4305.2049,N,07741.0662,W,13.71,35.07,081019,,,A*7A
$GPGGA,210529.750,4305.2056,N,07741.0655,W,1,05,3.18,162.4,M,-34.4,M,,*51
$GPRMC,210530.000,A,4305.2062,N,07741.0648,W,13.59,35.14,081019,,,A*7E
$GPGGA,210530.250,4305.2069,N,07741.0641,W,1,05,3.18,162.1,M,-34.4,M,,*50
$GPRMC,210530.500,A,4305.2076,N,07741.0634,W,13.35,34.56,081019,,,A*78
$GPGGA,210530.750,4305.2082,N,07741.0627,W,1,05,3.18,161.7,M,-34.4,M,,*55
$GPRMC,210531.000,A,4305.2089,N,07741.0620,W,13.24,34.82,081019,,,A*70
$GPGGA,210531.250,4305.2096,N,07741.0613,W,1,05,3.18,161.3,M,-34.4,M,,*57
$GPRMC,210531.500,A,4305.2102,N,07741.0607,W,12.98,34.83,081019,,,A*75
$GPGGA,210531.750,4305.2108,N,07741.0600,W,1,05,3.18,160.9,M,-34.4,M,,*5D
$GPRMC,210532.000,A,4305.2114,N,07741.0594,W,12.92,34.98,081019,,,A*7D
$GPGGA,210532.250,4305.2120,N,07741.0587,W,1,05,3.18,160.6,M,-34.4,M,,*52
$GPRMC,210532.500,A,4305.2126,N,07741.0580,W,12.85,35.22,081019,,,A*7A
$GPGGA,210532.750,4305.2131,N,07741.0573,W,1,05,3.18,160.2,M,-34.4,M,,*58
$GPRMC,210533.000,A,4305.2127,N,07741.0565,W,11.62,40.11,081019,,,A*7C
$GPGGA,210533.250,4305.2132,N,07741.0558,W,1,05,3.18,159.8,M,-34.4,M,,*56
$GPRMC,210533.500,A,4305.2138,N,07741.0551,W,11.49,41.17,081019,,,A*7E
$GPGGA,210533.750,4305.2144,N,07741.0546,W,1,05,3.18,159.5,M,-34.4,M,,*50
$GPRMC,210534.000,A,4305.2150,N,07741.0540,W,11.09,39.26,081019,,,A*7B
$GPGGA,210534.250,4305.2155,N,07741.0534,W,1,05,3.17,159.2,M,-34.4,M,,*5F
$GPRMC,210534.500,A,4305.2162,N,07741.0528,W,10.91,37.69,081019,,,A*74
$GPGGA,210534.750,4305.2168,N,07741.0522,W,1,05,3.18,158.9,M,-34.4,M,,*56
$GPRMC,210535.000,A,4305.2174,N,07741.0516,W,10.62,38.31,081019,,,A*74
$GPGGA,210535.250,4305.2180,N,07741.0510,W,1,05,3.17,158.8,M,-34.4,M,,*5B
$GPRMC,210535.500,A,4305.2186,N,07741.0504,W,10.28,39.15,081019,,,A*76
$GPGGA,210535.750,4305.2191,N,07741.0498,W,1,05,3.18,158.6,M,-34.4,M,,*5E
$GPRMC,210536.000,A,4305.2197,N,07741.0492,W,10.19,37.59,081019,,,A*7A
$GPGGA,210536.250,4305.2202,N,07741.0487,W,1,05,3.18,158.5,M,-34.4,M,,*5C
$GPRMC,210536.500,A,4305.2208,N,07741.0481,W,9.79,38.67,081019,,,A*44
$GPGGA,210536.750,4305.2213,N,07741.0475,W,1,05,3.18,158.4,M,-34.4,M,,*55
$GPRMC,210537.000,A,4305.2218,N,07741.0470,W,9.38,38.89,081019,,,A*4A
$GPGGA,210537.250,4305.2223,N,07741.0464,W,1,05,3.25,158.3,M,-34.4,M,,*5B
$GPRMC,210537.500,A,4305.2228,N,07741.0459,W,8.70,39.03,081019,,,D*4C
$GPGGA,210537.750,4305.2233,N,07741.0454,W,2,05,3.25,158.3,M,-34.4,M,0000,0000*5F
$GPRMC,210538.000,A,4305.2237,N,07741.0450,W,8.00,38.06,081019,,,D*42
$GPGGA,210538.250,4305.2241,N,07741.0445,W,2,05,3.26,158.3,M,-34.4,M,0000,0000*53
$GPRMC,210538.500,A,4305.2245,N,07741.0441,W,7.16,37.53,081019,,,D*45
$GPGGA,210538.750,4305.2248,N,07741.0437,W,2,05,3.25,158.2,M,-34.4,M,0000,0000*58
$GPRMC,210539.000,A,4305.2252,N,07741.0433,W,6.70,38.21,081019,,,D*49
$GPGGA,210539.250,4305.2255,N,07741.0430,W,2,05,3.25,158.1,M,-34.4,M,0000,0000*54
$GPRMC,210539.500,A,4305.2258,N,07741.0426,W,6.13,38.69,081019,,,D*4B
$GPGGA,210539.750,4305.2261,N,07741.0423,W,2,05,3.25,158.1,M,-34.4,M,0000,0000*54
$GPRMC,210540.000,A,4305.2264,N,07741.0419,W,5.53,38.89,081019,,,D*4A
$GPGGA,210540.250,4305.2267,N,07741.0417,W,2,05,3.25,158.0,M,-34.4,M,0000,0000*5F
$GPRMC,210540.500,A,4305.2270,N,07741.0414,W,5.33,38.68,081019,,,D*4E
$GPGGA,210540.750,4305.2273,N,07741.0411,W,2,05,3.25,158.0,M,-34.4,M,0000,0000*59
$GPRMC,210541.000,A,4305.2276,N,07741.0408,W,5.36,38.18,081019,,,D*43
$GPGGA,210541.250,4305.2279,N,07741.0405,W,2,05,3.25,158.0,M,-34.4,M,0000,0000*52
$GPRMC,210541.500,A,4305.2281,N,07741.0402,W,5.40,36.88,081019,,,D*42
$GPGGA,210541.750,4305.2284,N,07741.0399,W,2,05,3.25,157.9,M,-34.4,M,0000,0000*51
$GPRMC,210542.000,A,4305.2287,N,07741.0396,W,5.40,37.45,081019,,,D*48
$GPGGA,210542.250,4305.2289,N,07741.0393,W,2,05,3.25,157.9,M,-34.4,M,0000,0000*50
$GPRMC,210542.500,A,4305.2292,N,07741.0389,W,5.37,37.21,081019,,,D*45
$GPGGA,210542.750,4305.2295,N,07741.0386,W,2,05,3.25,157.9,M,-34.4,M,0000,0000*5C
$GPRMC,210543.000,A,4305.2297,N,07741.0383,W,5.35,37.28,081019,,,D*45
$GPGGA,210543.250,4305.2300,N,07741.0381,W,2,05,3.25,157.8,M,-34.4,M,0000,0000*53
$GPRMC,210543.500,A,4305.2303,N,07741.0378,W,5.29,36.57,081019,,,D*4C
$GPGGA,210543.750,4305.2306,N,07741.0375,W,2,05,3.25,157.8,M,-34.4,M,0000,0000*5B
$GPRMC,210544.000,A,4305.2308,N,07741.0372,W,5.22,37.48,081019,,,D*4B
$GPGGA,210544.250,4305.2311,N,07741.0369,W,2,05,3.25,157.7,M,-34.4,M,0000,0000*5D
$GPRMC,210544.500,A,4305.2313,N,07741.0367,W,5.20,38.60,081019,,,D*47
$GPGGA,210544.750,4305.2316,N,07741.0364,W,2,05,3.25,157.7,M,-34.4,M,0000,0000*52
$GPRMC,210545.000,A,4305.2318,N,07741.0361,W,5.07,36.70,081019,,,D*44
$GPGGA,210545.250,4305.2321,N,07741.0359,W,2,05,3.25,157.6,M,-34.4,M,0000,0000*5D
$GPRMC,210545.500,A,4305.2324,N,07741.0356,W,5.06,37.31,081019,,,D*4F
$GPGGA,210545.750,4305.2326,N,07741.0353,W,2,05,3.25,157.5,M,-34.4,M,0000,0000*56
$GPRMC,210546.000,A,4305.2329,N,07741.0351,W,4.99,37.61,081019,,,D*41
$GPGGA,210546.250,4305.2332,N,07741.0348,W,2,05,3.25,157.4,M,-34.4,M,0000,0000*5E
$GPRMC,210546.500,A,4305.2334,N,07741.0346,W,4.76,37.67,081019,,,D*49
$GPGGA,210546.750,4305.2336,N,07741.0343,W,2,05,3.25,157.3,M,-34.4,M,0000,0000*53
$GPRMC,210547.000,A,4305.2339,N,07741.0341,W,4.69,37.04,081019,,,D*4C
$GPGGA,210547.250,4305.2341,N,07741.0339,W,2,05,3.25,157.2,M,-34.4,M,0000,0000*5B
$GPRMC,210547.500,A,4305.2343,N,07741.0337,W,4.66,38.56,081019,,,D*42
$GPGGA,210547.750,4305.2346,N,07741.0335,W,2,05,3.25,157.0,M,-34.4,M,0000,0000*57
$GPRMC,210548.000,A,4305.2348,N,07741.0332,W,4.63,39.01,081019,,,D*40
$GPGGA,210548.250,4305.2350,N,07741.0330,W,2,05,3.25,156.8,M,-34.4,M,0000,0000*56
$GPRMC,210548.500,A,4305.2352,N,07741.0328,W,4.63,36.45,081019,,,D*4A
$GPGGA,210548.750,4305.2354,N,07741.0326,W,2,05,3.25,156.6,M,-34.4,M,0000,0000*5E
$GPRMC,210549.000,A,4305.2356,N,07741.0324,W,4.58,37.97,081019,,,D*40
$GPGGA,210549.250,4305.2359,N,07741.0322,W,2,05,3.25,156.5,M,-34.4,M,0000,0000*50
$GPRMC,210549.500,A,4305.2361,N,07741.0320,W,4.51,40.24,081019,,,D*44
$GPGGA,210549.750,4305.2363,N,07741.0318,W,2,05,3.25,156.3,M,-34.4,M,0000,0000*53
$GPRMC,210550.000,A,4305.2365,N,07741.0316,W,4.49,38.32,081019,,,D*49
$GPGGA,210550.250,4305.2371,N,07741.0313,W,2,07,1.46,156.6,M,-34.4,M,0000,0000*56
$GPRMC,210550.500,A,4305.2376,N,07741.0311,W,4.31,38.79,081019,,,D*49
$GPGGA,210550.750,4305.2381,N,07741.0309,W,2,07,1.46,157.0,M,-34.4,M,0000,0000*50
$GPRMC,210551.000,A,4305.2386,N,07741.0306,W,4.51,39.17,081019,,,D*4B
$GPGGA,210551.250,4305.2391,N,07741.0303,W,2,07,1.46,157.6,M,-34.4,M,0000,0000*59
$GPRMC,210551.500,A,4305.2395,N,07741.0300,W,4.47,41.13,081019,,,D*46
$GPGGA,210551.750,4305.2399,N,07741.0298,W,2,07,1.46,157.7,M,-34.4,M,0000,0000*56
$GPRMC,210552.000,A,4305.2403,N,07741.0295,W,4.64,39.47,081019,,,D*4A
$GPGGA,210552.250,4305.2407,N,07741.0292,W,2,07,1.46,157.9,M,-34.4,M,0000,0000*54
$GPRMC,210552.500,A,4305.2413,N,07741.0289,W,4.75,39.37,081019,,,D*44
$GPGGA,210552.750,4305.2418,N,07741.0287,W,2,07,1.46,158.0,M,-34.4,M,0000,0000*5D
$GPRMC,210553.000,A,4305.2423,N,07741.0284,W,4.86,39.19,081019,,,D*4E
$GPGGA,210553.250,4305.2426,N,07741.0280,W,2,07,1.46,158.2,M,-34.4,M,0000,0000*51
$GPRMC,210553.500,A,4305.2429,N,07741.0278,W,4.95,39.23,081019,,,D*49
$GPGGA,210553.750,4305.2433,N,07741.0275,W,2,07,1.46,158.2,M,-34.4,M,0000,0000*5A
$GPRMC,210554.000,A,4305.2436,N,07741.0273,W,5.05,38.58,081019,,,D*4B
$GPGGA,210554.250,4305.2440,N,07741.0270,W,2,07,1.46,158.3,M,-34.4,M,0000,0000*58
$GPRMC,210554.500,A,4305.2443,N,07741.0268,W,5.14,38.48,081019,,,D*47
$GPGGA,210554.750,4305.2446,N,07741.0265,W,2,07,1.46,158.4,M,-34.4,M,0000,0000*58
$GPRMC,210555.000,A,4305.2449,N,07741.0262,W,5.22,37.53,081019,,,D*43
$GPGGA,210555.250,4305.2453,N,07741.0260,W,2,07,1.46,158.5,M,-34.4,M,0000,0000*5C
$GPRMC,210555.500,A,4305.2457,N,07741.0257,W,5.45,38.71,081019,,,D*41
$GPGGA,210555.750,4305.2460,N,07741.0254,W,2,07,1.46,158.6,M,-34.4,M,0000,0000*5D
$GPRMC,210556.000,A,4305.2463,N,07741.0251,W,5.59,41.02,081019,,,D*41
$GPGGA,210556.250,4305.2466,N,07741.0247,W,2,07,1.46,158.7,M,-34.4,M,0000,0000*5E
$GPRMC,210556.500,A,4305.2470,N,07741.0243,W,6.13,41.77,081019,,,D*4A
$GPGGA,210556.750,4305.2473,N,07741.0239,W,2,07,1.46,158.8,M,-34.4,M,0000,0000*59
$GPRMC,210557.000,A,4305.2477,N,07741.0235,W,6.43,41.09,081019,,,D*44
$GPGGA,210557.250,4305.2481,N,07741.0231,W,2,07,1.46,159.0,M,-34.4,M,0000,0000*51
$GPRMC,210557.500,A,4305.2485,N,07741.0226,W,7.14,42.37,081019,,,D*43
$GPGGA,210557.750,4305.2489,N,07741.0222,W,2,07,1.46,159.1,M,-34.4,M,0000,0000*5F
$GPRMC,210558.000,A,4305.2493,N,07741.0217,W,7.41,42.94,081019,,,D*45
$GPGGA,210558.250,4305.2497,N,07741.0212,W,2,07,1.46,159.2,M,-34.4,M,0000,0000*5A
$GPRMC,210558.500,A,4305.2502,N,07741.0207,W,8.11,42.11,081019,,,D*4F
$GPGGA,210558.750,4305.2506,N,07741.0201,W,2,07,1.46,159.3,M,-34.4,M,0000,0000*55
$GPRMC,210559.000,A,4305.2511,N,07741.0195,W,8.34,42.49,081019,,,D*4B
$GPGGA,210559.250,4305.2516,N,07741.0190,W,2,07,1.46,159.4,M,-34.4,M,0000,0000*5C
$GPRMC,210559.500,A,4305.2521,N,07741.0184,W,8.77,42.80,081019,,,D*4F
$GPGGA,210559.750,4305.2526,N,07741.0179,W,2,07,1.46,159.5,M,-34.4,M,0000,0000*5C
$GPRMC,210600.000,A,4305.2530,N,07741.0173,W,8.83,42.02,081019,,,D*4C
$GPGGA,210600.250,4305.2535,N,07741.0168,W,2,07,1.46,159.5,M,-34.4,M,0000,0000*54
$GPRMC,210600.500,A,4305.2540,N,07741.0162,W,9.06,41.65,081019,,,D*40
$GPGGA,210600.750,4305.2545,N,07741.0157,W,2,07,1.46,159.6,M,-34.4,M,0000,0000*59
$GPRMC,210601.000,A,4305.2550,N,07741.0151,W,8.81,41.79,081019,,,D*46
$GPGGA,210601.250,4305.2555,N,07741.0147,W,2,07,1.27,159.7,M,-34.4,M,0000,0000*5B
$GPRMC,210601.500,A,4305.2560,N,07741.0142,W,8.51,40.56,081019,,,D*43
$GPGGA,210601.750,4305.2564,N,07741.0137,W,2,07,1.46,159.8,M,-34.4,M,0000,0000*53
$GPRMC,210602.000,A,4305.2569,N,07741.0132,W,8.27,39.71,081019,,,D*41
$GPGGA,210602.250,4305.2574,N,07741.0127,W,2,07,1.27,159.6,M,-34.4,M,0000,0000*5C
$GPRMC,210602.500,A,4305.2579,N,07741.0123,W,8.20,38.97,081019,,,D*4B
$GPGGA,210602.750,4305.2583,N,07741.0118,W,2,07,1.46,159.4,M,-34.4,M,0000,0000*58
$GPRMC,210603.000,A,4305.2588,N,07741.0113,W,7.98,39.84,081019,,,D*4D
$GPGGA,210603.250,4305.2592,N,07741.0109,W,2,07,1.46,159.4,M,-34.4,M,0000,0000*5C
$GPRMC,210603.500,A,4305.2597,N,07741.0104,W,7.69,40.45,081019,,,D*4D
$GPGGA,210603.750,4305.2601,N,07741.0100,W,2,07,1.46,159.3,M,-34.4,M,0000,0000*5E
$GPRMC,210604.000,A,4305.2606,N,07741.0095,W,7.63,39.39,081019,,,D*42
$GPGGA,210604.250,4305.2610,N,07741.0091,W,2,07,1.46,159.3,M,-34.4,M,0000,0000*55
$GPRMC,210604.500,A,4305.2615,N,07741.0086,W,7.46,42.73,081019,,,D*42
$GPGGA,210604.750,4305.2619,N,07741.0082,W,2,07,1.46,159.3,M,-34.4,M,0000,0000*5B
$GPRMC,210605.000,A,4305.2623,N,07741.0077,W,6.58,44.12,081019,,,D*42
$GPGGA,210605.250,4305.2627,N,07741.0073,W,2,07,1.46,159.3,M,-34.4,M,0000,0000*5C
$GPRMC,210605.500,A,4305.2630,N,07741.0069,W,6.28,44.77,081019,,,D*4E
$GPGGA,210605.750,4305.2634,N,07741.0065,W,2,07,1.46,159.3,M,-34.4,M,0000,0000*5C
$GPRMC,210606.000,A,4305.2637,N,07741.0061,W,6.22,45.98,081019,,,D*4D
$GPGGA,210606.250,4305.2641,N,07741.0057,W,2,07,1.46,159.3,M,-34.4,M,0000,0000*59
$GPRMC,210606.500,A,4305.2644,N,07741.0053,W,6.14,45.48,081019,,,D*45
$GPGGA,210606.750,4305.2648,N,07741.0049,W,2,07,1.46,159.2,M,-34.4,M,0000,0000*5B
$GPRMC,210607.000,A,4305.2652,N,07741.0046,W,5.93,40.02,081019,,,D*45
$GPGGA,210607.250,4305.2655,N,07741.0043,W,2,07,1.46,159.2,M,-34.4,M,0000,0000*59
$GPRMC,210607.500,A,4305.2659,N,07741.0039,W,5.89,39.67,081019,,,D*45
$GPGGA,210607.750,4305.2662,N,07741.0036,W,2,07,1.46,159.2,M,-34.4,M,0000,0000*5A
$GPRMC,210608.000,A,4305.2666,N,07741.0032,W,5.81,39.85,081019,,,D*4C
$GPGGA,210606.250,4305.2669,N,07741.0028,W,2,07,1.46,159.1,M,-34.4,M,0000,0000*59
$GPRMC,210606.500,A,4305.2672,N,07741.0025,W,5.74,39.57,081019,,,D*41
$GPGGA,210606.750,4305.2675,N,07741.0014,W,2,07,1.46,158.9,M,-34.4,M,0000,0000*57
$GPRMC,210607.000,A,4305.2678,N,07741.0006,W,5.69,39.74,081019,,,D*43
$GPGGA,210607.250,4305.2680,N,07740.9999,W,2,07,1.46,158.9,M,-34.4,M,0000,0000*5D
$GPRMC,210607.500,A,4305.2683,N,07740.9994,W,5.65,39.18,081019,,,D*4E
$GPGGA,210607.750,4305.2687,N,07740.9990,W,2,07,1.46,158.6,M,-34.4,M,0000,0000*59
$GPRMC,210608.000,A,4305.2690,N,07740.9985,W,5.58,38.17,081019,,,D*46
$GPGGA,210608.250,4305.2694,N,07740.9982,W,2,07,1.46,158.4,M,-34.4,M,0000,0000*50
$GPRMC,210608.500,A,4305.2697,N,07740.9978,W,5.52,37.32,081019,,,D*44
$GPGGA,210608.750,4305.2700,N,07740.9974,W,2,07,1.46,158.4,M,-34.4,M,0000,0000*50
$GPRMC,210609.000,A,4305.2703,N,07740.9970,W,5.49,39.14,081019,,,D*44
$GPGGA,210609.250,4305.2706,N,07740.9967,W,2,07,1.46,158.3,M,-34.4,M,0000,0000*57
$GPRMC,210609.500,A,4305.2709,N,07740.9963,W,5.48,38.53,081019,,,D*4A
$GPGGA,210609.750,4305.2712,N,07740.9961,W,2,07,1.46,158.2,M,-34.4,M,0000,0000*50
$GPRMC,210610.000,A,4305.2715,N,07740.9957,W,5.42,39.72,081019,,,D*45
$GPGGA,210610.250,4305.2717,N,07740.9954,W,2,07,1.46,158.2,M,-34.4,M,0000,0000*5E
$GPRMC,210610.500,A,4305.2720,N,07740.9950,W,5.38,38.35,081019,,,D*4E
$GPGGA,210610.750,4305.2723,N,07740.9946,W,2,07,1.46,158.2,M,-34.4,M,0000,0000*5F
$GPRMC,210611.000,A,4305.2725,N,07740.9943,W,5.32,38.40,081019,,,D*45
$GPGGA,210611.250,4305.2728,N,07740.9939,W,2,07,1.46,158.1,M,-34.4,M,0000,0000*5B
$GPRMC,210611.500,A,4305.2731,N,07740.9936,W,5.26,40.77,081019,,,D*49
$GPGGA,210611.750,4305.2734,N,07740.9934,W,2,07,1.46,158.1,M,-34.4,M,0000,0000*5E
$GPRMC,210612.000,A,4305.2737,N,07740.9931,W,5.20,41.36,081019,,,D*4C
$GPGGA,210612.250,4305.2739,N,07740.9928,W,2,07,1.46,158.1,M,-34.4,M,0000,0000*58
$GPRMC,210612.500,A,4305.2742,N,07740.9924,W,5.21,44.17,081019,,,D*48
$GPGGA,210612.750,4305.2745,N,07740.9921,W,2,07,1.46,158.0,M,-34.4,M,0000,0000*5E
$GPRMC,210613.000,A,4305.2748,N,07740.9918,W,5.69,41.06,081019,,,D*40
$GPGGA,210613.250,4305.2751,N,07740.9914,W,2,07,1.46,158.1,M,-34.4,M,0000,0000*58
$GPRMC,210613.500,A,4305.2754,N,07740.9911,W,6.00,39.20,081019,,,D*46
$GPGGA,210613.750,4305.2757,N,07740.9908,W,2,07,1.46,158.0,M,-34.4,M,0000,0000*57
$GPRMC,210614.000,A,4305.2760,N,07740.9904,W,6.01,39.97,081019,,,D*4A
$GPGGA,210614.250,4305.2763,N,07740.9901,W,2,07,1.46,158.1,M,-34.4,M,0000,0000*5A
$GPRMC,210614.500,A,4305.2765,N,07740.9896,W,6.00,41.83,081019,,,D*4B
$GPGGA,210614.750,4305.2767,N,07740.9892,W,2,07,1.46,158.0,M,-34.4,M,0000,0000*51
$GPRMC,210615.000,A,4305.2770,N,07740.9889,W,5.99,41.43,081019,,,D*4A
$GPGGA,210615.250,4305.2774,N,07740.9885,W,2,07,1.46,158.0,M,-34.4,M,0000,0000*51
$GPRMC,210615.500,A,4305.2776,N,07740.9881,W,6.51,42.29,081019,,,D*49
$GPGGA,210615.750,4305.2780,N,07740.9878,W,2,07,1.46,158.0,M,-34.4,M,0000,0000*5D
$GPRMC,210616.000,A,4305.2784,N,07740.9874,W,7.15,41.37,081019,,,D*45
$GPGGA,210616.250,4305.2788,N,07740.9870,W,2,07,1.46,158.0,M,-34.4,M,0000,0000*5B
$GPRMC,210616.500,A,4305.2792,N,07740.9865,W,7.32,41.66,081019,,,D*46
$GPGGA,210616.750,4305.2796,N,07740.9861,W,2,07,1.46,158.0,M,-34.4,M,0000,0000*51
$GPRMC,210617.000,A,4305.2800,N,07740.9856,W,7.15,43.69,081019,,,D*4E
$GPGGA,210617.250,4305.2803,N,07740.9852,W,2,07,1.46,158.0,M,-34.4,M,0000,0000*56
$GPRMC,210617.500,A,4305.2807,N,07740.9848,W,6.95,42.22,081019,,,D*44
$GPGGA,210617.750,4305.2811,N,07740.9844,W,2,07,1.46,158.0,M,-34.4,M,0000,0000*57
$GPRMC,210618.000,A,4305.2814,N,07740.9840,W,6.92,41.40,081019,,,D*44
$GPGGA,210618.250,4305.2818,N,07740.9837,W,2,07,1.46,157.8,M,-34.4,M,0000,0000*57
$GPRMC,210618.500,A,4305.2822,N,07740.9833,W,6.81,39.58,081019,,,D*44
$GPGGA,210618.750,4305.2826,N,07740.9830,W,2,07,1.46,157.7,M,-34.4,M,0000,0000*57
$GPRMC,210619.000,A,4305.2830,N,07740.9826,W,6.71,39.35,081019,,,D*43
$GPGGA,210619.250,4305.2834,N,07740.9822,W,2,07,1.46,157.6,M,-34.4,M,0000,0000*52
$GPRMC,210619.500,A,4305.2838,N,07740.9819,W,6.63,40.16,081019,,,D*4E
$GPGGA,210619.750,4305.2842,N,07740.9816,W,2,07,1.46,157.5,M,-34.4,M,0000,0000*52
$GPRMC,210620.000,A,4305.2845,N,07740.9813,W,6.46,41.82,081019,,,D*4A
$GPGGA,210620.250,4305.2849,N,07740.9810,W,2,07,1.46,157.4,M,-34.4,M,0000,0000*51
$GPRMC,210620.500,A,4305.2853,N,07740.9807,W,6.35,39.73,081019,,,D*48
$GPGGA,210620.750,4305.2857,N,07740.9804,W,2,07,1.46,157.3,M,-34.4,M,0000,0000*59
$GPRMC,210621.000,A,4305.2860,N,07740.9801,W,5.85,41.74,081019,,,D*4A
$GPGGA,210621.250,4305.2864,N,07740.9799,W,2,07,1.46,157.2,M,-34.4,M,0000,0000*57
$GPRMC,210621.500,A,4305.2867,N,07740.9796,W,5.60,39.00,081019,,,D*4E
$GPGGA,210621.750,4305.2870,N,07740.9794,W,2,07,1.46,157.1,M,-34.4,M,0000,0000*59
$GPRMC,210622.000,A,4305.2872,N,07740.9791,W,4.96,39.74,081019,,,D*40
$GPGGA,210622.250,4305.2875,N,07740.9790,W,2,07,1.46,157.1,M,-34.4,M,0000,0000*5E
$GPRMC,210622.500,A,4305.2876,N,07740.9789,W,4.31,40.08,081019,,,D*40
$GPGGA,210622.750,4305.2878,N,07740.9787,W,2,07,1.46,157.0,M,-34.4,M,0000,0000*51
$GPRMC,210623.000,A,4305.2879,N,07740.9785,W,3.88,41.98,081019,,,D*4A
$GPGGA,210623.250,4305.2880,N,07740.9783,W,2,07,1.27,156.9,M,-34.4,M,0000,0000*59
$GPRMC,210623.500,A,4305.2881,N,07740.9782,W,3.57,39.22,081019,,,D*43
$GPGGA,210623.750,4305.2882,N,07740.9780,W,2,07,1.27,156.8,M,-34.4,M,0000,0000*5C
$GPRMC,210624.000,A,4305.2884,N,07740.9778,W,3.46,38.94,081019,,,D*4D
$GPGGA,210624.250,4305.2886,N,07740.9775,W,2,07,1.27,156.8,M,-34.4,M,0000,0000*50
$GPRMC,210624.500,A,4305.2887,N,07740.9774,W,3.46,39.85,081019,,,D*46
$GPGGA,210624.750,4305.2889,N,07740.9771,W,2,07,1.27,156.8,M,-34.4,M,0000,0000*5E
$GPRMC,210625.000,A,4305.2891,N,07740.9769,W,3.49,41.22,081019,,,D*44
$GPGGA,210625.250,4305.2892,N,07740.9767,W,2,07,1.27,156.7,M,-34.4,M,0000,0000*58
$GPRMC,210625.500,A,4305.2894,N,07740.9765,W,3.58,40.11,081019,,,D*49
$GPGGA,210625.750,4305.2896,N,07740.9763,W,2,07,1.27,156.7,M,-34.4,M,0000,0000*5D
$GPRMC,210626.000,A,4305.2898,N,07740.9761,W,3.91,40.07,081019,,,D*45
$GPGGA,210626.250,4305.2900,N,07740.9758,W,2,07,1.46,156.7,M,-34.4,M,0000,0000*5A
$GPRMC,210626.500,A,4305.2902,N,07740.9756,W,4.54,40.43,081019,,,D*48
$GPGGA,210626.750,4305.2905,N,07740.9753,W,2,07,1.46,156.7,M,-34.4,M,0000,0000*51
$GPRMC,210627.000,A,4305.2907,N,07740.9750,W,4.57,39.29,081019,,,D*4E
$GPGGA,210627.250,4305.2909,N,07740.9748,W,2,07,1.46,156.6,M,-34.4,M,0000,0000*52
$GPRMC,210627.500,A,4305.2912,N,07740.9745,W,4.56,40.39,081019,,,D*45
$GPGGA,210627.750,4305.2914,N,07740.9742,W,2,07,1.46,156.6,M,-34.4,M,0000,0000*51
$GPRMC,210628.000,A,4305.2916,N,07740.9739,W,4.63,41.95,081019,,,D*41
$GPGGA,210628.250,4305.2919,N,07740.9736,W,2,07,1.46,156.6,M,-34.4,M,0000,0000*55
$GPRMC,210628.500,A,4305.2921,N,07740.9733,W,4.65,40.31,081019,,,D*43
$GPGGA,210628.750,4305.2924,N,07740.9731,W,2,07,1.46,156.6,M,-34.4,M,0000,0000*59
$GPRMC,210629.000,A,4305.2926,N,07740.9728,W,4.66,39.65,081019,,,D*46
$GPGGA,210629.250,4305.2928,N,07740.9725,W,2,07,1.46,156.6,M,-34.4,M,0000,0000*54
$GPRMC,210629.500,A,4305.2931,N,07740.9722,W,4.64,41.13,081019,,,D*43
