Vers 81
USE_SERIAL_FEEDBACK=true
DEVELOPMENT_MODE=false
USE_RMC_ONLY=false

$GPRMC,210401.500,A,4305.1509,N,07740.8098,W,0.01,333.55,051019,,,D*76
$GPGGA,210401.750,4305.1509,N,07740.8098,W,2,08,1.14,172.3,M,-34.4,M,0000,0000*5E
$GPRMC,210402.000,A,4305.1509,N,07740.8098,W,0.01,333.55,051019,,,D*70
$GPGGA,210402.250,4305.1509,N,07740.8098,W,2,08,1.14,172.2,M,-34.4,M,0000,0000*59
$GPRMC,210402.500,A,4305.1509,N,07740.8098,W,0.01,333.55,051019,,,D*75
$GPGGA,210402.750,4305.1509,N,07740.8098,W,2,09,0.97,172.2,M,-34.4,M,0000,0000*57
$GPRMC,210403.000,A,4305.1509,N,07740.8098,W,0.01,333.55,051019,,,D*71
$GPGGA,210403.250,4305.1509,N,07740.8098,W,2,09,0.97,172.2,M,-34.4,M,0000,0000*53
$GPRMC,210403.500,A,4305.1509,N,07740.8098,W,0.00,333.55,051019,,,D*75
$GPGGA,210403.750,4305.1509,N,07740.8098,W,2,09,0.97,172.2,M,-34.4,M,0000,0000*56
$GPRMC,210404.000,A,4305.1509,N,07740.8098,W,0.00,333.55,051019,,,D*77
$GPGGA,210404.250,4305.1509,N,07740.8098,W,2,09,0.97,172.2,M,-34.4,M,0000,0000*54
$GPRMC,210404.500,A,4305.1509,N,07740.8098,W,0.00,333.55,051019,,,D*72
$GPGGA,210404.750,4305.1509,N,07740.8098,W,2,09,0.97,172.2,M,-34.4,M,0000,0000*51
$GPRMC,210405.000,A,4305.1509,N,07740.8098,W,0.00,333.55,051019,,,D*76
$GPGGA,210405.250,4305.1509,N,07740.8098,W,2,09,0.97,172.2,M,-34.4,M,0000,0000*55
$GPRMC,210405.500,A,4305.1509,N,07740.8098,W,0.00,333.55,051019,,,D*73
$GPGGA,210405.750,4305.1509,N,07740.8098,W,2,09,0.97,172.2,M,-34.4,M,0000,0000*50
$GPRMC,210406.000,A,4305.1509,N,07740.8098,W,0.00,333.55,051019,,,D*75
$GPGGA,210406.250,4305.1509,N,07740.8098,W,2,09,0.97,172.2,M,-34.4,M,0000,0000*56
$GPRMC,210406.500,A,4305.1509,N,07740.8098,W,0.00,333.55,051019,,,D*70
$GPGGA,210406.750,4305.1509,N,07740.8098,W,2,09,0.97,172.2,M,-34.4,M,0000,0000*53
$GPRMC,210407.000,A,4305.1509,N,07740.8098,W,0.00,333.55,051019,,,D*74
$GPGGA,210407.250,4305.1509,N,07740.8098,W,2,09,0.97,172.2,M,-34.4,M,0000,0000*57
$GPRMC,210407.500,A,4305.1509,N,07740.8098,W,0.01,333.55,051019,,,D*70
$GPGGA,210407.750,4305.1509,N,07740.8098,W,2,09,0.97,172.2,M,-34.4,M,0000,0000*52
$GPRMC,210408.000,A,4305.1509,N,07740.8098,W,0.00,333.55,051019,,,D*7B
$GPGGA,210408.250,4305.1509,N,07740.8098,W,2,09,0.97,172.2,M,-34.4,M,0000,0000*58
$GPRMC,210408.500,A,4305.1509,N,07740.8098,W,0.01,333.55,051019,,,D*7F
$GPGGA,210408.750,4305.1509,N,07740.8098,W,2,09,0.97,172.2,M,-34.4,M,0000,0000*5D
$GPRMC,210409.000,A,4305.1509,N,07740.8098,W,0.01,333.55,051019,,,D*7B
$GPGGA,210409.250,4305.1509,N,07740.8098,W,2,09,0.97,172.2,M,-34.4,M,0000,0000*59
$GPRMC,210409.500,A,4305.1509,N,07740.8098,W,0.01,333.55,051019,,,D*7E
$GPGGA,210409.750,4305.1509,N,07740.8098,W,2,09,1.14,172.2,M,-34.4,M,0000,0000*56
$GPRMC,210410.000,A,4305.1509,N,07740.8098,W,0.01,333.55,051019,,,D*73
$GPGGA,210410.250,4305.1509,N,07740.8098,W,2,10,0.95,172.2,M,-34.4,M,0000,0000*5B
$GPRMC,210410.500,A,4305.1509,N,07740.8098,W,0.01,333.55,051019,,,D*76
$GPGGA,210410.750,4305.1509,N,07740.8098,W,2,08,1.32,172.2,M,-34.4,M,0000,0000*5B
$GPRMC,210411.000,A,4305.1509,N,07740.8098,W,0.01,333.55,051019,,,D*72
$GPGGA,210411.250,4305.1509,N,07740.8098,W,2,09,1.13,172.2,M,-34.4,M,0000,0000*5D
$GPRMC,210411.500,A,4305.1509,N,07740.8098,W,0.00,333.55,051019,,,D*76
$GPGGA,210411.750,4305.1509,N,07740.8098,W,2,09,1.13,172.2,M,-34.4,M,0000,0000*58
$GPRMC,210412.000,A,4305.1509,N,07740.8098,W,0.00,333.55,051019,,,D*70
$GPGGA,210412.250,4305.1509,N,07740.8098,W,2,09,1.13,172.2,M,-34.4,M,0000,0000*5E
$GPRMC,210412.500,A,4305.1509,N,07740.8098,W,0.00,333.55,051019,,,D*75
$GPGGA,210412.750,4305.1509,N,07740.8098,W,2,09,1.13,172.2,M,-34.4,M,0000,0000*5B
$GPRMC,210413.000,A,4305.1509,N,07740.8098,W,0.00,333.55,051019,,,D*71
$GPGGA,210413.250,4305.1509,N,07740.8098,W,2,09,1.13,172.2,M,-34.4,M,0000,0000*5F
$GPRMC,210413.500,A,4305.1509,N,07740.8098,W,0.00,333.55,051019,,,D*74
$GPGGA,210413.750,4305.1509,N,07740.8098,W,2,09,1.13,172.2,M,-34.4,M,0000,0000*5A
$GPRMC,210414.000,A,4305.1509,N,07740.8098,W,0.00,333.55,051019,,,D*76
$GPGGA,210414.250,4305.1509,N,07740.8098,W,2,09,1.13,172.2,M,-34.4,M,0000,0000*58
$GPRMC,210414.500,A,4305.1509,N,07740.8098,W,0.00,333.55,051019,,,D*73
$GPGGA,210414.750,4305.1509,N,07740.8098,W,2,09,1.13,172.2,M,-34.4,M,0000,0000*5D
$GPRMC,210415.000,A,4305.1509,N,07740.8098,W,0.00,333.55,051019,,,D*77
$GPGGA,210415.250,4305.1509,N,07740.8098,W,2,09,1.13,172.2,M,-34.4,M,0000,0000*59
$GPRMC,210415.500,A,4305.1509,N,07740.8098,W,0.00,333.55,051019,,,D*72
$GPGGA,210415.750,4305.1509,N,07740.8098,W,2,08,1.32,172.2,M,-34.4,M,0000,0000*5E
$GPRMC,210416.000,A,4305.1509,N,07740.8098,W,0.01,333.55,051019,,,D*75
$GPGGA,210416.250,4305.1509,N,07740.8098,W,2,09,1.13,172.2,M,-34.4,M,0000,0000*5A
$GPRMC,210416.500,A,4305.1509,N,07740.8098,W,0.00,333.55,051019,,,D*71
$GPGGA,210416.750,4305.1509,N,07740.8098,W,2,09,1.13,172.2,M,-34.4,M,0000,0000*5F
$GPRMC,210417.000,A,4305.1509,N,07740.8098,W,0.00,333.55,051019,,,D*75
$GPGGA,210417.250,4305.1509,N,07740.8098,W,2,09,1.13,172.2,M,-34.4,M,0000,0000*5B
$GPRMC,210417.500,A,4305.1509,N,07740.8098,W,0.00,333.55,051019,,,D*70
$GPGGA,210417.750,4305.1509,N,07740.8098,W,2,09,1.13,172.2,M,-34.4,M,0000,0000*5E
$GPRMC,210418.000,A,4305.1509,N,07740.8098,W,0.01,333.55,051019,,,D*7B
$GPGGA,210418.250,4305.1509,N,07740.8098,W,2,09,1.13,172.2,M,-34.4,M,0000,0000*54
$GPRMC,210418.500,A,4305.1509,N,07740.8098,W,0.00,333.55,051019,,,D*7F
$GPGGA,210418.750,4305.1509,N,07740.8098,W,2,09,1.13,172.2,M,-34.4,M,0000,0000*51
$GPRMC,210419.000,A,4305.1509,N,07740.8098,W,0.00,333.55,051019,,,D*7B
$GPGGA,210419.250,4305.1509,N,07740.8098,W,2,09,1.13,172.2,M,-34.4,M,0000,0000*55
$GPRMC,210419.500,A,4305.1509,N,07740.8098,W,0.00,333.55,051019,,,D*7E
$GPGGA,210419.750,4305.1509,N,07740.8098,W,2,09,1.13,172.2,M,-34.4,M,0000,0000*50
$GPRMC,210420.000,A,4305.1509,N,07740.8098,W,0.01,333.55,051019,,,D*70
$GPGGA,210420.250,4305.1509,N,07740.8098,W,2,09,1.13,172.1,M,-34.4,M,0000,0000*5C
$GPRMC,210420.500,A,4305.1509,N,07740.8098,W,0.00,333.55,051019,,,D*74
$GPGGA,210420.750,4305.1509,N,07740.8098,W,2,08,1.32,172.1,M,-34.4,M,0000,0000*5B
$GPRMC,210421.000,A,4305.1509,N,07740.8098,W,0.00,333.55,051019,,,D*70
$GPGGA,210421.250,4305.1509,N,07740.8098,W,2,08,1.32,172.1,M,-34.4,M,0000,0000*5F
$GPRMC,210421.500,A,4305.1509,N,07740.8098,W,0.00,333.55,051019,,,D*75
$GPGGA,210421.750,4305.1509,N,07740.8098,W,2,08,1.32,172.1,M,-34.4,M,0000,0000*5A
$GPRMC,210422.000,A,4305.1509,N,07740.8098,W,0.00,333.55,051019,,,D*73
$GPGGA,210422.250,4305.1509,N,07740.8098,W,2,08,1.32,172.1,M,-34.4,M,0000,0000*5C
$GPRMC,210422.500,A,4305.1509,N,07740.8098,W,0.01,333.55,051019,,,D*77
$GPGGA,210422.750,4305.1509,N,07740.8098,W,2,08,1.32,172.1,M,-34.4,M,0000,0000*59
$GPRMC,210423.000,A,4305.1509,N,07740.8098,W,0.01,333.55,051019,,,D*73
$GPGGA,210423.250,4305.1509,N,07740.8098,W,2,08,1.32,172.1,M,-34.4,M,0000,0000*5D
$GPRMC,210423.500,A,4305.1509,N,07740.8098,W,0.00,333.55,051019,,,D*77
$GPGGA,210423.750,4305.1509,N,07740.8098,W,2,08,1.32,172.1,M,-34.4,M,0000,0000*58
$GPRMC,210424.000,A,4305.1509,N,07740.8098,W,0.00,333.55,051019,,,D*75
$GPGGA,210424.250,4305.1509,N,07740.8098,W,2,08,1.32,172.1,M,-34.4,M,0000,0000*5A
$GPRMC,210424.500,A,4305.1509,N,07740.8098,W,0.01,333.55,051019,,,D*71
$GPGGA,210424.750,4305.1509,N,07740.8098,W,2,08,1.32,172.1,M,-34.4,M,0000,0000*5F
$GPRMC,210425.000,A,4305.1509,N,07740.8098,W,0.00,333.55,051019,,,D*74
$GPGGA,210425.250,4305.1509,N,07740.8098,W,2,08,1.32,172.1,M,-34.4,M,0000,0000*5B
$GPRMC,210425.500,A,4305.1509,N,07740.8098,W,0.01,333.55,051019,,,D*70
$GPGGA,210425.750,4305.1509,N,07740.8098,W,2,08,1.32,172.1,M,-34.4,M,0000,0000*5E
$GPRMC,210426.000,A,4305.1509,N,07740.8098,W,0.00,333.55,051019,,,D*77
$GPGGA,210426.250,4305.1509,N,07740.8098,W,2,08,1.32,172.1,M,-34.4,M,0000,0000*58
$GPRMC,210426.500,A,4305.1509,N,07740.8098,W,0.00,333.55,051019,,,D*72
$GPGGA,210426.750,4305.1509,N,07740.8098,W,2,08,1.32,172.1,M,-34.4,M,0000,0000*5D
$GPRMC,210427.000,A,4305.1509,N,07740.8098,W,0.00,333.55,051019,,,D*76
$GPGGA,210427.250,4305.1509,N,07740.8098,W,2,08,1.32,172.1,M,-34.4,M,0000,0000*59
$GPRMC,210427.500,A,4305.1509,N,07740.8098,W,0.00,333.55,051019,,,D*73
$GPGGA,210427.750,4305.1509,N,07740.8098,W,2,08,1.32,172.1,M,-34.4,M,0000,0000*5C
$GPRMC,210428.000,A,4305.1509,N,07740.8098,W,0.00,333.55,051019,,,D*79
$GPGGA,210428.250,4305.1509,N,07740.8098,W,2,08,1.32,172.1,M,-34.4,M,0000,0000*56
$GPRMC,210428.500,A,4305.1509,N,07740.8098,W,0.00,333.55,051019,,,D*7C
$GPGGA,210428.750,4305.1509,N,07740.8098,W,2,08,1.32,172.1,M,-34.4,M,0000,0000*53
$GPRMC,210429.000,A,4305.1509,N,07740.8098,W,0.00,333.55,051019,,,D*78
$GPGGA,210429.250,4305.1509,N,07740.8098,W,2,09,1.13,172.1,M,-34.4,M,0000,0000*55
$GPRMC,210429.500,A,4305.1509,N,07740.8098,W,0.00,333.55,051019,,,D*7D
$GPGGA,210429.750,4305.1509,N,07740.8098,W,2,09,1.13,172.1,M,-34.4,M,0000,0000*50
$GPRMC,210430.000,A,4305.1509,N,07740.8098,W,0.00,333.55,051019,,,D*70
$GPGGA,210430.250,4305.1509,N,07740.8098,W,2,09,1.13,172.1,M,-34.4,M,0000,0000*5D
$GPRMC,210430.500,A,4305.1509,N,07740.8098,W,0.00,333.55,051019,,,D*75
$GPGGA,210430.750,4305.1509,N,07740.8098,W,2,09,1.13,172.1,M,-34.4,M,0000,0000*58
$GPRMC,210431.000,A,4305.1509,N,07740.8098,W,0.00,333.55,051019,,,D*71
$GPGGA,210431.250,4305.1509,N,07740.8098,W,2,09,1.13,172.1,M,-34.4,M,0000,0000*5C
$GPRMC,210431.500,A,4305.1509,N,07740.8098,W,0.00,333.55,051019,,,D*74
$GPGGA,210431.750,4305.1509,N,07740.8098,W,2,09,1.13,172.1,M,-34.4,M,0000,0000*59
$GPRMC,210432.000,A,4305.1509,N,07740.8098,W,0.00,333.55,051019,,,D*72
$GPGGA,210432.250,4305.1509,N,07740.8098,W,2,09,1.13,172.1,M,-34.4,M,0000,0000*5F
$GPRMC,210432.500,A,4305.1509,N,07740.8098,W,0.00,333.55,051019,,,D*77
$GPGGA,210432.750,4305.1509,N,07740.8098,W,2,09,1.13,172.1,M,-34.4,M,0000,0000*5A
$GPRMC,210433.000,A,4305.1509,N,07740.8098,W,0.00,333.55,051019,,,D*73
$GPGGA,210433.250,4305.1509,N,07740.8098,W,2,09,1.13,172.1,M,-34.4,M,0000,0000*5E
$GPRMC,210433.500,A,4305.1509,N,07740.8098,W,0.00,333.55,051019,,,D*76
$GPGGA,210433.750,4305.1509,N,07740.8098,W,2,09,1.13,172.1,M,-34.4,M,0000,0000*5B
$GPRMC,210434.000,A,4305.1509,N,07740.8098,W,0.00,333.55,051019,,,D*74
$GPGGA,210434.250,4305.1509,N,07740.8098,W,2,09,1.13,172.1,M,-34.4,M,0000,0000*59
$GPRMC,210434.500,A,4305.1509,N,07740.8098,W,0.00,333.55,051019,,,D*71
$GPGGA,210434.750,4305.1509,N,07740.8098,W,2,09,1.13,172.1,M,-34.4,M,0000,0000*5C
$GPRMC,210435.000,A,4305.1509,N,07740.8098,W,0.01,333.55,051019,,,D*74
$GPGGA,210435.250,4305.1509,N,07740.8098,W,2,09,1.13,172.1,M,-34.4,M,0000,0000*58
$GPRMC,210435.500,A,4305.1509,N,07740.8098,W,0.02,333.55,051019,,,D*72
$GPGGA,210435.750,4305.1509,N,07740.8098,W,2,09,1.13,172.1,M,-34.4,M,0000,0000*5D
$GPRMC,210436.000,A,4305.1509,N,07740.8098,W,0.03,333.55,051019,,,D*75
$GPGGA,210436.250,4305.1509,N,07740.8098,W,2,08,1.32,172.1,M,-34.4,M,0000,0000*59
$GPRMC,210436.500,A,4305.1509,N,07740.8098,W,0.02,333.55,051019,,,D*71
$GPGGA,210436.750,4305.1509,N,07740.8098,W,2,09,1.13,172.1,M,-34.4,M,0000,0000*5E
$GPRMC,210437.000,A,4305.1509,N,07740.8098,W,0.03,333.55,051019,,,D*74
$GPGGA,210437.250,4305.1509,N,07740.8098,W,2,08,1.32,172.1,M,-34.4,M,0000,0000*58
$GPRMC,210437.500,A,4305.1509,N,07740.8098,W,0.02,333.55,051019,,,D*70
$GPGGA,210437.750,4305.1509,N,07740.8098,W,2,08,1.32,172.1,M,-34.4,M,0000,0000*5D
$GPRMC,210438.000,A,4305.1509,N,07740.8098,W,0.04,333.55,051019,,,D*7C
$GPGGA,210438.250,4305.1509,N,07740.8098,W,2,08,1.32,172.1,M,-34.4,M,0000,0000*57
$GPRMC,210438.500,A,4305.1509,N,07740.8098,W,0.07,333.55,051019,,,D*7A
$GPGGA,210438.750,4305.1509,N,07740.8098,W,2,08,1.32,172.0,M,-34.4,M,0000,0000*53
$GPRMC,210439.000,A,4305.1509,N,07740.8098,W,0.08,333.55,051019,,,D*71
$GPGGA,210439.250,4305.1509,N,07740.8098,W,2,09,1.13,172.0,M,-34.4,M,0000,0000*55
$GPRMC,210439.500,A,4305.1509,N,07740.8098,W,0.07,333.55,051019,,,D*7B
$GPGGA,210439.750,4305.1509,N,07740.8098,W,2,09,1.13,172.0,M,-34.4,M,0000,0000*50
$GPRMC,210440.000,A,4305.1509,N,07740.8098,W,0.37,333.55,051019,,,D*73
$GPGGA,210440.250,4305.1509,N,07740.8098,W,2,08,1.30,172.0,M,-34.4,M,0000,0000*5B
$GPRMC,210440.500,A,4305.1508,N,07740.8098,W,0.92,333.55,051019,,,D*78
$GPGGA,210440.750,4305.1507,N,07740.8098,W,2,08,1.30,172.0,M,-34.4,M,0000,0000*50
$GPRMC,210441.000,A,4305.1507,N,07740.8099,W,0.70,184.17,051019,,,D*76
$GPGGA,210441.250,4305.1506,N,07740.8099,W,2,08,1.30,171.9,M,-34.4,M,0000,0000*5E
$GPRMC,210441.500,A,4305.1506,N,07740.8099,W,0.67,184.69,051019,,,D*7D
$GPGGA,210441.750,4305.1505,N,07740.8100,W,2,08,1.32,171.9,M,-34.4,M,0000,0000*5B
$GPRMC,210442.000,A,4305.1504,N,07740.8100,W,0.70,184.30,051019,,,D*72
$GPGGA,210442.250,4305.1504,N,07740.8100,W,2,09,1.08,171.8,M,-34.4,M,0000,0000*55
$GPRMC,210442.500,A,4305.1503,N,07740.8100,W,0.71,183.49,051019,,,D*78
$GPGGA,210442.750,4305.1503,N,07740.8100,W,2,08,1.32,171.8,M,-34.4,M,0000,0000*5F
$GPRMC,210443.000,A,4305.1502,N,07740.8100,W,0.69,182.47,051019,,,D*7B
$GPGGA,210443.250,4305.1502,N,07740.8100,W,2,09,1.13,171.7,M,-34.4,M,0000,0000*57
$GPRMC,210443.500,A,4305.1501,N,07740.8100,W,0.68,181.84,051019,,,D*70
$GPGGA,210443.750,4305.1500,N,07740.8101,W,2,10,0.95,171.7,M,-34.4,M,0000,0000*56
$GPRMC,210444.000,A,4305.1500,N,07740.8101,W,0.69,181.52,051019,,,D*78
$GPGGA,210444.250,4305.1499,N,07740.8101,W,2,09,1.13,171.6,M,-34.4,M,0000,0000*53
$GPRMC,210444.500,A,4305.1498,N,07740.8101,W,0.73,181.45,051019,,,D*70
$GPGGA,210444.750,4305.1498,N,07740.8102,W,2,09,1.13,171.6,M,-34.4,M,0000,0000*54
$GPRMC,210445.000,A,4305.1497,N,07740.8102,W,0.78,181.94,051019,,,D*7F
$GPGGA,210445.250,4305.1496,N,07740.8102,W,2,09,1.13,171.5,M,-34.4,M,0000,0000*5D
$GPRMC,210445.500,A,4305.1495,N,07740.8103,W,0.85,182.91,051019,,,D*7D
$GPGGA,210445.750,4305.1493,N,07740.8103,W,2,10,0.95,171.4,M,-34.4,M,0000,0000*5A
$GPRMC,210446.000,A,4305.1492,N,07740.8104,W,0.96,184.28,051019,,,D*7D
$GPGGA,210446.250,4305.1491,N,07740.8104,W,2,10,0.95,171.3,M,-34.4,M,0000,0000*5E
$GPRMC,210446.500,A,4305.1489,N,07740.8104,W,1.55,200.76,051019,,,D*78
$GPGGA,210446.750,4305.1487,N,07740.8105,W,2,10,0.95,171.2,M,-34.4,M,0000,0000*5C
$GPRMC,210447.000,A,4305.1486,N,07740.8105,W,2.09,197.09,051019,,,D*7D
$GPGGA,210447.250,4305.1484,N,07740.8105,W,2,10,0.95,171.2,M,-34.4,M,0000,0000*5B
$GPRMC,210447.500,A,4305.1482,N,07740.8106,W,2.14,202.28,051019,,,D*7F
$GPGGA,210447.750,4305.1479,N,07740.8106,W,2,10,0.95,171.1,M,-34.4,M,0000,0000*5C
$GPRMC,210448.000,A,4305.1476,N,07740.8107,W,2.68,195.26,051019,,,D*77
$GPGGA,210448.250,4305.1473,N,07740.8107,W,2,10,0.95,171.1,M,-34.4,M,0000,0000*5D
$GPRMC,210448.500,A,4305.1470,N,07740.8108,W,2.82,192.03,051019,,,D*7F
$GPGGA,210448.750,4305.1468,N,07740.8108,W,2,10,0.95,171.0,M,-34.4,M,0000,0000*5C
$GPRMC,210449.000,A,4305.1466,N,07740.8109,W,2.55,189.93,051019,,,D*74
$GPGGA,210449.250,4305.1465,N,07740.8109,W,2,10,0.95,171.0,M,-34.4,M,0000,0000*54
$GPRMC,210449.500,A,4305.1465,N,07740.8109,W,1.08,183.26,051019,,,D*7D
$GPGGA,210449.750,4305.1465,N,07740.8109,W,2,10,0.95,171.0,M,-34.4,M,0000,0000*51
$GPRMC,210450.000,A,4305.1466,N,07740.8108,W,0.53,187.06,051019,,,D*7B
$GPGGA,210450.250,4305.1472,N,07740.8109,W,2,10,0.95,171.0,M,-34.4,M,0000,0000*5A
$GPRMC,210450.500,A,4305.1477,N,07740.8108,W,2.92,8.48,051019,,,D*7D
$GPGGA,210450.750,4305.1483,N,07740.8107,W,2,10,0.95,171.2,M,-34.4,M,0000,0000*5D
$GPRMC,210451.000,A,4305.1489,N,07740.8107,W,8.44,8.26,051019,,,D*7E
$GPGGA,210451.250,4305.1495,N,07740.8105,W,2,10,0.95,171.4,M,-34.4,M,0000,0000*5A
$GPRMC,210451.500,A,4305.1496,N,07740.8105,W,9.53,11.88,051019,,,D*4C
$GPGGA,210451.750,4305.1497,N,07740.8103,W,2,10,0.95,172.3,M,-34.4,M,0000,0000*5F
$GPRMC,210452.000,A,4305.1500,N,07740.8099,W,5.98,50.58,051019,,,D*43
$GPGGA,210452.250,4305.1501,N,07740.8094,W,2,10,0.95,172.5,M,-34.4,M,0000,0000*5E
$GPRMC,210452.500,A,4305.1503,N,07740.8087,W,7.53,67.36,051019,,,D*43
$GPGGA,210452.750,4305.1505,N,07740.8080,W,2,09,1.14,172.4,M,-34.4,M,0000,0000*5B
$GPRMC,210453.000,A,4305.1506,N,07740.8073,W,8.83,76.49,051019,,,D*43
$GPGGA,210453.250,4305.1506,N,07740.8065,W,2,08,1.32,172.3,M,-34.4,M,0000,0000*55
$GPRMC,210453.500,A,4305.1506,N,07740.8055,W,10.07,86.17,051019,,,D*73
$GPGGA,210453.750,4305.1506,N,07740.8046,W,2,08,1.32,172.4,M,-34.4,M,0000,0000*56
$GPRMC,210454.000,A,4305.1505,N,07740.8036,W,10.57,89.03,051019,,,D*78
$GPGGA,210454.250,4305.1504,N,07740.8027,W,2,08,1.32,172.5,M,-34.4,M,0000,0000*50
$GPRMC,210454.500,A,4305.1503,N,07740.8017,W,10.95,91.39,051019,,,D*76
$GPGGA,210454.750,4305.1502,N,07740.8007,W,2,10,0.95,172.6,M,-34.4,M,0000,0000*57
$GPRMC,210455.000,A,4305.1501,N,07740.7996,W,11.36,92.95,051019,,,D*72
$GPGGA,210455.250,4305.1500,N,07740.7985,W,2,09,1.13,172.7,M,-34.4,M,0000,0000*5B
$GPRMC,210455.500,A,4305.1500,N,07740.7974,W,12.27,91.82,051019,,,D*7C
$GPGGA,210455.750,4305.1499,N,07740.7963,W,2,09,1.13,172.8,M,-34.4,M,0000,0000*58
$GPRMC,210456.000,A,4305.1499,N,07740.7951,W,12.85,91.40,051019,,,D*7A
$GPGGA,210456.250,4305.1499,N,07740.7939,W,2,09,1.13,172.9,M,-34.4,M,0000,0000*50
$GPRMC,210456.500,A,4305.1499,N,07740.7926,W,13.69,90.59,051019,,,D*75
$GPGGA,210456.750,4305.1498,N,07740.7913,W,2,09,1.13,173.0,M,-34.4,M,0000,0000*54
$GPRMC,210457.000,A,4305.1498,N,07740.7899,W,14.26,90.69,051019,,,D*7A
$GPGGA,210457.250,4305.1498,N,07740.7885,W,2,08,1.32,173.1,M,-34.4,M,0000,0000*5D
$GPRMC,210457.500,A,4305.1497,N,07740.7871,W,14.85,91.05,051019,,,D*74
$GPGGA,210457.750,4305.1497,N,07740.7857,W,2,09,1.14,173.0,M,-34.4,M,0000,0000*5C
$GPRMC,210458.000,A,4305.1496,N,07740.7842,W,14.87,91.79,051019,,,D*76
$GPGGA,210458.250,4305.1495,N,07740.7828,W,2,08,1.32,172.9,M,-34.4,M,0000,0000*51
$GPRMC,210458.500,A,4305.1495,N,07740.7814,W,14.62,91.20,051019,,,D*74
$GPGGA,210458.750,4305.1495,N,07740.7800,W,2,09,1.13,172.8,M,-34.4,M,0000,0000*5D
$GPRMC,210459.000,A,4305.1495,N,07740.7786,W,14.37,90.72,051019,,,D*72
$GPGGA,210459.250,4305.1495,N,07740.7772,W,2,08,1.32,172.6,M,-34.4,M,0000,0000*5F
$GPRMC,210459.500,A,4305.1493,N,07740.7759,W,13.84,90.77,051019,,,D*79
$GPGGA,210459.750,4305.1491,N,07740.7746,W,2,08,1.32,172.4,M,-34.4,M,0000,0000*5B
$GPRMC,210500.000,A,4305.1490,N,07740.7733,W,13.44,91.06,051019,,,D*75
$GPGGA,210500.250,4305.1488,N,07740.7722,W,2,09,1.13,172.4,M,-34.4,M,0000,0000*5B
$GPRMC,210500.500,A,4305.1487,N,07740.7709,W,12.94,90.54,051019,,,D*75
$GPGGA,210500.750,4305.1486,N,07740.7696,W,2,09,1.13,172.4,M,-34.4,M,0000,0000*5E
$GPRMC,210501.000,A,4305.1484,N,07740.7684,W,12.46,95.68,051019,,,D*73
$GPGGA,210501.250,4305.1483,N,07740.7671,W,2,09,1.13,172.3,M,-34.4,M,0000,0000*51
$GPRMC,210501.500,A,4305.1482,N,07740.7660,W,11.50,99.68,051019,,,D*72
$GPGGA,210501.750,4305.1480,N,07740.7649,W,2,09,1.13,172.2,M,-34.4,M,0000,0000*5D
$GPRMC,210502.000,A,4305.1479,N,07740.7638,W,11.13,102.21,051019,,,D*44
$GPGGA,210502.250,4305.1477,N,07740.7628,W,2,09,1.13,172.2,M,-34.4,M,0000,0000*54
$GPRMC,210502.500,A,4305.1475,N,07740.7618,W,10.95,100.31,051019,,,D*43
$GPGGA,210502.750,4305.1474,N,07740.7608,W,2,09,1.13,172.1,M,-34.4,M,0000,0000*53
$GPRMC,210503.000,A,4305.1473,N,07740.7598,W,10.42,96.12,051019,,,D*7F
$GPGGA,210503.250,4305.1473,N,07740.7588,W,2,08,1.32,171.8,M,-34.4,M,0000,0000*53
$GPRMC,210503.500,A,4305.1474,N,07740.7578,W,10.80,85.27,051019,,,D*79
$GPGGA,210503.750,4305.1475,N,07740.7567,W,2,09,1.13,171.7,M,-34.4,M,0000,0000*5C
$GPRMC,210504.000,A,4305.1478,N,07740.7556,W,11.34,73.04,051019,,,D*7D
$GPGGA,210504.250,4305.1481,N,07740.7546,W,2,10,0.95,171.5,M,-34.4,M,0000,0000*53
$GPRMC,210504.500,A,4305.1484,N,07740.7536,W,11.65,62.43,051019,,,D*7A
$GPGGA,210504.750,4305.1489,N,07740.7526,W,2,10,0.95,171.3,M,-34.4,M,0000,0000*5E
$GPRMC,210505.000,A,4305.1494,N,07740.7516,W,12.35,51.94,051019,,,D*71
$GPGGA,210505.250,4305.1500,N,07740.7507,W,2,09,1.13,171.0,M,-34.4,M,0000,0000*5D
$GPRMC,210505.500,A,4305.1507,N,07740.7500,W,12.47,40.02,051019,,,D*72
$GPGGA,210505.750,4305.1514,N,07740.7492,W,2,09,1.13,171.0,M,-34.4,M,0000,0000*50
$GPRMC,210506.000,A,4305.1522,N,07740.7485,W,13.45,29.35,051019,,,D*77
$GPGGA,210506.250,4305.1532,N,07740.7478,W,2,10,0.95,170.7,M,-34.4,M,0000,0000*57
$GPRMC,210506.500,A,4305.1541,N,07740.7473,W,13.91,20.72,051019,,,D*7D
$GPGGA,210506.750,4305.1550,N,07740.7468,W,2,09,1.13,170.5,M,-34.4,M,0000,0000*52
$GPRMC,210507.000,A,4305.1559,N,07740.7465,W,14.31,16.83,051019,,,D*71
$GPGGA,210507.250,4305.1567,N,07740.7462,W,2,09,1.13,170.4,M,-34.4,M,0000,0000*59
$GPRMC,210507.500,A,4305.1575,N,07740.7460,W,13.85,13.52,051019,,,D*7E
$GPGGA,210507.750,4305.1583,N,07740.7458,W,2,09,1.13,170.1,M,-34.4,M,0000,0000*5A
$GPRMC,210508.000,A,4305.1591,N,07740.7457,W,14.01,7.90,051019,,,D*4A
$GPGGA,210508.250,4305.1602,N,07740.7456,W,2,09,1.13,169.9,M,-34.4,M,0000,0000*54
$GPRMC,210508.500,A,4305.1613,N,07740.7457,W,15.66,0.20,051019,,,D*4A
$GPGGA,210508.750,4305.1624,N,07740.7457,W,2,09,1.13,169.7,M,-34.4,M,0000,0000*5A
$GPRMC,210509.000,A,4305.1636,N,07740.7457,W,16.53,357.34,051019,,,D*48
$GPGGA,210509.250,4305.1648,N,07740.7458,W,2,09,1.13,169.4,M,-34.4,M,0000,0000*58
$GPRMC,210509.500,A,4305.1660,N,07740.7459,W,17.45,354.79,051019,,,D*4C
$GPGGA,210509.750,4305.1673,N,07740.7460,W,2,09,1.13,169.1,M,-34.4,M,0000,0000*5B
$GPRMC,210510.000,A,4305.1686,N,07740.7461,W,17.75,354.50,051019,,,D*4A
$GPGGA,210510.250,4305.1698,N,07740.7462,W,2,09,1.13,168.8,M,-34.4,M,0000,0000*59
$GPRMC,210510.500,A,4305.1711,N,07740.7463,W,18.06,356.34,051019,,,D*49
$GPGGA,210510.750,4305.1723,N,07740.7463,W,2,09,1.13,168.5,M,-34.4,M,0000,0000*51
$GPRMC,210511.000,A,4305.1736,N,07740.7464,W,18.61,359.01,051019,,,D*47
$GPGGA,210511.250,4305.1748,N,07740.7463,W,2,09,1.13,168.2,M,-34.4,M,0000,0000*5F
$GPRMC,210511.500,A,4305.1762,N,07740.7463,W,18.23,2.60,051019,,,D*48
$GPGGA,210511.750,4305.1775,N,07740.7463,W,2,09,1.13,167.8,M,-34.4,M,0000,0000*51
$GPRMC,210512.000,A,4305.1787,N,07740.7463,W,18.28,3.11,051019,,,D*49
$GPGGA,210512.250,4305.1799,N,07740.7462,W,2,09,1.13,167.6,M,-34.4,M,0000,0000*5A
$GPRMC,210512.500,A,4305.1811,N,07740.7462,W,18.06,2.33,051019,,,D*40
$GPGGA,210512.750,4305.1824,N,07740.7461,W,2,09,1.13,167.4,M,-34.4,M,0000,0000*57
$GPRMC,210513.000,A,4305.1836,N,07740.7461,W,18.10,1.38,051019,,,D*4D
$GPGGA,210513.250,4305.1849,N,07740.7460,W,2,09,1.13,167.0,M,-34.4,M,0000,0000*5D
$GPRMC,210513.500,A,4305.1862,N,07740.7460,W,18.21,359.83,051019,,,D*44
$GPGGA,210513.750,4305.1876,N,07740.7460,W,2,09,1.13,166.5,M,-34.4,M,0000,0000*50
$GPRMC,210514.000,A,4305.1889,N,07740.7459,W,18.50,358.92,051019,,,D*4E
$GPGGA,210514.250,4305.1903,N,07740.7459,W,2,09,1.13,166.0,M,-34.4,M,0000,0000*5E
$GPRMC,210514.500,A,4305.1916,N,07740.7459,W,18.51,358.53,051019,,,D*40
$GPGGA,210514.750,4305.1930,N,07740.7458,W,2,09,1.13,165.6,M,-34.4,M,0000,0000*5F
$GPRMC,210515.000,A,4305.1943,N,07740.7458,W,18.62,358.83,051019,,,D*48
$GPGGA,210515.250,4305.1956,N,07740.7458,W,2,09,1.13,165.2,M,-34.4,M,0000,0000*5F
$GPRMC,210515.500,A,4305.1969,N,07740.7458,W,18.66,359.02,051019,,,D*49
$GPGGA,210515.750,4305.1982,N,07740.7458,W,2,09,1.13,164.7,M,-34.4,M,0000,0000*57
$GPRMC,210516.000,A,4305.1996,N,07740.7458,W,19.12,359.25,051019,,,D*48
$GPGGA,210516.250,4305.2009,N,07740.7457,W,2,10,0.95,164.2,M,-34.4,M,0000,0000*55
$GPRMC,210516.500,A,4305.2022,N,07740.7457,W,19.51,359.32,051019,,,D*46
$GPGGA,210516.750,4305.2035,N,07740.7456,W,2,10,0.95,163.6,M,-34.4,M,0000,0000*5D
$GPRMC,210517.000,A,4305.2049,N,07740.7456,W,20.00,358.78,051019,,,D*4F
$GPGGA,210517.250,4305.2062,N,07740.7455,W,2,10,0.95,163.1,M,-34.4,M,0000,0000*5F
$GPRMC,210517.500,A,4305.2077,N,07740.7455,W,20.60,359.17,051019,,,D*4A
$GPGGA,210517.750,4305.2091,N,07740.7455,W,2,10,0.95,162.5,M,-34.4,M,0000,0000*53
$GPRMC,210518.000,A,4305.2105,N,07740.7454,W,21.07,359.19,051019,,,D*4B
$GPGGA,210518.250,4305.2119,N,07740.7454,W,2,10,0.95,161.8,M,-34.4,M,0000,0000*57
$GPRMC,210518.500,A,4305.2133,N,07740.7453,W,21.37,359.51,051019,,,D*43
$GPGGA,210518.750,4305.2148,N,07740.7453,W,2,10,0.95,161.3,M,-34.4,M,0000,0000*5A
$GPRMC,210519.000,A,4305.2163,N,07740.7453,W,21.37,359.29,051019,,,D*4D
$GPGGA,210519.250,4305.2178,N,07740.7452,W,2,10,0.95,160.9,M,-34.4,M,0000,0000*57
$GPRMC,210519.500,A,4305.2193,N,07740.7452,W,21.40,359.07,051019,,,D*4A
$GPGGA,210519.750,4305.2208,N,07740.7452,W,2,09,1.13,160.6,M,-34.4,M,0000,0000*5E
$GPRMC,210520.000,A,4305.2223,N,07740.7452,W,21.31,358.91,051019,,,D*45
$GPGGA,210520.250,4305.2238,N,07740.7453,W,2,10,0.95,160.1,M,-34.4,M,0000,0000*53
$GPRMC,210520.500,A,4305.2253,N,07740.7453,W,21.07,358.84,051019,,,D*47
$GPGGA,210520.750,4305.2268,N,07740.7453,W,2,10,0.95,159.8,M,-34.4,M,0000,0000*50
$GPRMC,210521.000,A,4305.2283,N,07740.7453,W,21.00,359.46,051019,,,D*46
$GPGGA,210521.250,4305.2298,N,07740.7453,W,2,10,0.95,159.4,M,-34.4,M,0000,0000*57
$GPRMC,210521.500,A,4305.2313,N,07740.7453,W,20.75,359.81,051019,,,D*43
$GPGGA,210521.750,4305.2327,N,07740.7453,W,2,10,0.95,159.2,M,-34.4,M,0000,0000*51
$GPRMC,210522.000,A,4305.2341,N,07740.7453,W,19.98,359.97,051019,,,D*4C
$GPGGA,210522.250,4305.2355,N,07740.7453,W,2,10,0.95,159.0,M,-34.4,M,0000,0000*50
$GPRMC,210522.500,A,4305.2369,N,07740.7453,W,19.00,359.66,051019,,,D*4C
$GPGGA,210522.750,4305.2382,N,07740.7453,W,2,10,0.95,158.7,M,-34.4,M,0000,0000*59
$GPRMC,210523.000,A,4305.2396,N,07740.7453,W,18.58,359.69,051019,,,D*4B
$GPGGA,210523.250,4305.2409,N,07740.7453,W,2,10,0.95,158.5,M,-34.4,M,0000,0000*5B
$GPRMC,210523.500,A,4305.2422,N,07740.7453,W,17.91,359.83,051019,,,D*48
$GPGGA,210523.750,4305.2434,N,07740.7453,W,2,10,0.95,158.3,M,-34.4,M,0000,0000*56
$GPRMC,210524.000,A,4305.2446,N,07740.7453,W,16.95,359.88,051019,,,D*46
$GPGGA,210524.250,4305.2457,N,07740.7453,W,2,10,0.95,158.1,M,-34.4,M,0000,0000*53
$GPRMC,210524.500,A,4305.2468,N,07740.7453,W,16.05,359.53,051019,,,D*40
$GPGGA,210524.750,4305.2479,N,07740.7454,W,2,10,0.95,157.9,M,-34.4,M,0000,0000*5A
$GPRMC,210525.000,A,4305.2490,N,07740.7455,W,15.56,359.82,051019,,,D*4C
$GPGGA,210525.250,4305.2501,N,07740.7456,W,2,10,0.95,157.7,M,-34.4,M,0000,0000*5C
$GPRMC,210525.500,A,4305.2513,N,07740.7456,W,15.72,0.36,051019,,,D*46
$GPGGA,210525.750,4305.2525,N,07740.7457,W,2,09,1.13,157.6,M,-34.4,M,0000,0000*58
$GPRMC,210526.000,A,4305.2537,N,07740.7457,W,16.84,0.79,051019,,,D*46
$GPGGA,210526.250,4305.2549,N,07740.7458,W,2,09,1.13,157.5,M,-34.4,M,0000,0000*58
$GPRMC,210526.500,A,4305.2561,N,07740.7459,W,17.05,0.94,051019,,,D*45
$GPGGA,210526.750,4305.2573,N,07740.7459,W,2,09,1.14,157.5,M,-34.4,M,0000,0000*52
$GPRMC,210527.000,A,4305.2586,N,07740.7460,W,17.31,0.54,051019,,,D*49
$GPGGA,210527.250,4305.2599,N,07740.7460,W,2,08,1.32,157.4,M,-34.4,M,0000,0000*5C
$GPRMC,210527.500,A,4305.2612,N,07740.7461,W,18.37,358.93,051019,,,D*4F
$GPGGA,210527.750,4305.2626,N,07740.7461,W,2,09,1.14,157.3,M,-34.4,M,0000,0000*5D
$GPRMC,210528.000,A,4305.2640,N,07740.7461,W,19.43,358.42,051019,,,D*4C
$GPGGA,210528.250,4305.2655,N,07740.7461,W,2,09,1.14,157.2,M,-34.4,M,0000,0000*52
$GPRMC,210528.500,A,4305.2670,N,07740.7461,W,20.42,358.35,051019,,,D*41
$GPGGA,210528.750,4305.2685,N,07740.7461,W,2,10,0.95,157.0,M,-34.4,M,0000,0000*58
$GPRMC,210529.000,A,4305.2701,N,07740.7462,W,21.25,358.27,051019,,,D*42
$GPGGA,210529.250,4305.2717,N,07740.7462,W,2,09,1.14,156.9,M,-34.4,M,0000,0000*5D
$GPRMC,210529.500,A,4305.2732,N,07740.7463,W,22.20,358.08,051019,,,D*4D
$GPGGA,210529.750,4305.2749,N,07740.7464,W,2,08,1.32,156.8,M,-34.4,M,0000,0000*51
$GPRMC,210530.000,A,4305.2766,N,07740.7465,W,23.34,357.35,051019,,,D*42
$GPGGA,210530.250,4305.2783,N,07740.7467,W,2,08,1.32,156.6,M,-34.4,M,0000,0000*57
$GPRMC,210530.500,A,4305.2800,N,07740.7468,W,23.62,357.24,051019,,,D*46
$GPGGA,210530.750,4305.2817,N,07740.7469,W,2,08,1.14,156.5,M,-34.4,M,0000,0000*59
$GPRMC,210531.000,A,4305.2834,N,07740.7471,W,23.97,357.93,051019,,,D*4B
$GPGGA,210531.250,4305.2852,N,07740.7472,W,2,08,1.14,156.4,M,-34.4,M,0000,0000*57
$GPRMC,210531.500,A,4305.2869,N,07740.7472,W,24.53,358.47,051019,,,D*4C
$GPGGA,210531.750,4305.2887,N,07740.7473,W,2,09,0.97,156.3,M,-34.4,M,0000,0000*57
$GPRMC,210532.000,A,4305.2904,N,07740.7473,W,24.74,358.75,051019,,,D*45
$GPGGA,210532.250,4305.2922,N,07740.7474,W,2,08,1.28,156.1,M,-34.4,M,0000,0000*5E
$GPRMC,210532.500,A,4305.2940,N,07740.7474,W,24.86,358.94,051019,,,D*45
$GPGGA,210532.750,4305.2957,N,07740.7475,W,2,09,0.97,156.0,M,-34.4,M,0000,0000*5D
$GPRMC,210533.000,A,4305.2974,N,07740.7475,W,24.51,358.87,051019,,,D*4F
$GPGGA,210533.250,4305.2991,N,07740.7475,W,2,09,0.97,155.9,M,-34.4,M,0000,0000*59
$GPRMC,210533.500,A,4305.3008,N,07740.7475,W,24.07,358.60,051019,,,D*43
$GPGGA,210533.750,4305.3025,N,07740.7476,W,2,09,0.97,156.0,M,-34.4,M,0000,0000*52
$GPRMC,210534.000,A,4305.3041,N,07740.7476,W,23.58,358.39,051019,,,D*4E
$GPGGA,210534.250,4305.3057,N,07740.7477,W,2,09,0.97,156.2,M,-34.4,M,0000,0000*56
$GPRMC,210534.500,A,4305.3074,N,07740.7478,W,23.36,358.39,051019,,,D*4B
$GPGGA,210534.750,4305.3090,N,07740.7478,W,2,09,0.97,156.1,M,-34.4,M,0000,0000*54
$GPRMC,210535.000,A,4305.3106,N,07740.7479,W,22.98,358.35,051019,,,D*43
$GPGGA,210535.250,4305.3122,N,07740.7479,W,2,09,0.97,156.1,M,-34.4,M,0000,0000*59
$GPRMC,210535.500,A,4305.3138,N,07740.7479,W,22.59,358.67,051019,,,D*41
$GPGGA,210535.750,4305.3153,N,07740.7480,W,2,09,0.97,156.1,M,-34.4,M,0000,0000*5C
$GPRMC,210536.000,A,4305.3169,N,07740.7480,W,22.24,358.79,051019,,,D*40
$GPGGA,210536.250,4305.3184,N,07740.7481,W,2,09,0.97,156.0,M,-34.4,M,0000,0000*50
$GPRMC,210536.500,A,4305.3199,N,07740.7481,W,21.55,359.16,051019,,,D*46
$GPGGA,210536.750,4305.3214,N,07740.7481,W,2,09,0.97,155.9,M,-34.4,M,0000,0000*55
$GPRMC,210537.000,A,4305.3229,N,07740.7481,W,20.59,359.50,051019,,,D*45
$GPGGA,210537.250,4305.3243,N,07740.7481,W,2,09,0.97,155.9,M,-34.4,M,0000,0000*53
$GPRMC,210537.500,A,4305.3256,N,07740.7481,W,19.31,359.89,051019,,,D*48
$GPGGA,210537.750,4305.3269,N,07740.7481,W,2,09,0.97,155.8,M,-34.4,M,0000,0000*5F
$GPRMC,210538.000,A,4305.3282,N,07740.7482,W,17.40,0.16,051019,,,D*49
$GPGGA,210538.250,4305.3293,N,07740.7482,W,2,09,0.97,155.7,M,-34.4,M,0000,0000*5C
$GPRMC,210538.500,A,4305.3304,N,07740.7483,W,15.40,0.60,051019,,,D*41
$GPGGA,210538.750,4305.3314,N,07740.7484,W,2,09,0.97,155.6,M,-34.4,M,0000,0000*50
$GPRMC,210539.000,A,4305.3323,N,07740.7485,W,13.33,0.25,051019,,,D*45
$GPGGA,210539.250,4305.3331,N,07740.7487,W,2,09,0.97,155.6,M,-34.4,M,0000,0000*50
$GPRMC,210539.500,A,4305.3338,N,07740.7488,W,10.66,1.26,051019,,,D*46
$GPGGA,210539.750,4305.3345,N,07740.7490,W,2,09,0.97,155.6,M,-34.4,M,0000,0000*50
$GPRMC,210540.000,A,4305.3351,N,07740.7491,W,8.18,0.55,051019,,,D*7F
$GPGGA,210540.250,4305.3356,N,07740.7492,W,2,09,0.97,155.6,M,-34.4,M,0000,0000*5B
$GPRMC,210540.500,A,4305.3361,N,07740.7492,W,6.57,358.34,051019,,,D*76
$GPGGA,210540.750,4305.3366,N,07740.7493,W,2,09,0.97,155.6,M,-34.4,M,0000,0000*5C
$GPRMC,210541.000,A,4305.3370,N,07740.7493,W,5.71,358.47,051019,,,D*70
$GPGGA,210541.250,4305.3374,N,07740.7493,W,2,09,0.97,155.5,M,-34.4,M,0000,0000*58
$GPRMC,210541.500,A,4305.3377,N,07740.7493,W,4.28,359.34,051019,,,D*7A
$GPGGA,210541.750,4305.3379,N,07740.7494,W,2,08,1.28,155.6,M,-34.4,M,0000,0000*50
$GPRMC,210542.000,A,4305.3382,N,07740.7494,W,3.57,357.94,051019,,,D*7A
$GPGGA,210542.250,4305.3384,N,07740.7494,W,2,09,0.97,155.6,M,-34.4,M,0000,0000*50
$GPRMC,210542.500,A,4305.3387,N,07740.7495,W,3.56,1.41,051019,,,D*72
$GPGGA,210542.750,4305.3390,N,07740.7495,W,2,10,0.95,155.7,M,-34.4,M,0000,0000*5A
$GPRMC,210543.000,A,4305.3393,N,07740.7495,W,4.45,357.47,051019,,,D*70
$GPGGA,210543.250,4305.3397,N,07740.7496,W,2,10,0.95,155.7,M,-34.4,M,0000,0000*5A
$GPRMC,210543.500,A,4305.3401,N,07740.7498,W,6.02,346.27,051019,,,D*73
$GPGGA,210543.750,4305.3406,N,07740.7499,W,2,10,0.95,155.8,M,-34.4,M,0000,0000*50
$GPRMC,210544.000,A,4305.3410,N,07740.7502,W,7.39,337.15,051019,,,D*7D
$GPGGA,210544.250,4305.3415,N,07740.7506,W,2,10,0.95,155.8,M,-34.4,M,0000,0000*57
$GPRMC,210544.500,A,4305.3420,N,07740.7511,W,9.33,323.58,051019,,,D*71
$GPGGA,210544.750,4305.3425,N,07740.7517,W,2,10,0.95,155.9,M,-34.4,M,0000,0000*50
$GPRMC,210545.000,A,4305.3429,N,07740.7525,W,10.09,312.53,051019,,,D*43
$GPGGA,210545.250,4305.3432,N,07740.7535,W,2,10,0.95,156.0,M,-34.4,M,0000,0000*58
$GPRMC,210545.500,A,4305.3434,N,07740.7546,W,13.03,294.21,051019,,,D*4C
$GPGGA,210545.750,4305.3436,N,07740.7559,W,2,10,0.95,156.0,M,-34.4,M,0000,0000*53
$GPRMC,210546.000,A,4305.3438,N,07740.7572,W,14.42,286.31,051019,,,D*41
$GPGGA,210546.250,4305.3439,N,07740.7587,W,2,10,0.95,156.1,M,-34.4,M,0000,0000*58
$GPRMC,210546.500,A,4305.3439,N,07740.7602,W,15.48,282.92,051019,,,D*47
$GPGGA,210546.750,4305.3438,N,07740.7618,W,2,10,0.95,156.2,M,-34.4,M,0000,0000*5A
$GPRMC,210547.000,A,4305.3438,N,07740.7634,W,17.39,274.37,051019,,,D*45
$GPGGA,210547.250,4305.3438,N,07740.7650,W,2,10,0.95,156.3,M,-34.4,M,0000,0000*53
$GPRMC,210547.500,A,4305.3439,N,07740.7666,W,18.69,271.74,051019,,,D*4E
$GPGGA,210547.750,4305.3441,N,07740.7682,W,2,10,0.95,156.1,M,-34.4,M,0000,0000*55
$GPRMC,210548.000,A,4305.3441,N,07740.7699,W,19.69,268.87,051019,,,D*4E
$GPGGA,210548.250,4305.3443,N,07740.7717,W,2,10,0.95,156.0,M,-34.4,M,0000,0000*51
$GPRMC,210548.500,A,4305.3444,N,07740.7736,W,21.01,269.60,051019,,,D*47
$GPGGA,210548.750,4305.3444,N,07740.7756,W,2,10,0.95,156.1,M,-34.4,M,0000,0000*57
$GPRMC,210549.000,A,4305.3445,N,07740.7776,W,21.65,268.77,051019,,,D*43
$GPGGA,210549.250,4305.3445,N,07740.7797,W,2,09,1.20,156.0,M,-34.4,M,0000,0000*59
$GPRMC,210549.500,A,4305.3445,N,07740.7818,W,22.41,268.83,051019,,,D*4F
$GPGGA,210549.750,4305.3445,N,07740.7839,W,2,09,1.20,156.0,M,-34.4,M,0000,0000*57
$GPRMC,210550.000,A,4305.3445,N,07740.7861,W,23.19,268.56,051019,,,D*48
$GPGGA,210550.250,4305.3445,N,07740.7883,W,2,09,1.20,156.0,M,-34.4,M,0000,0000*5B
$GPRMC,210550.500,A,4305.3445,N,07740.7906,W,23.86,268.84,051019,,,D*44
$GPGGA,210550.750,4305.3445,N,07740.7929,W,2,10,0.95,156.0,M,-34.4,M,0000,0000*58
$GPRMC,210551.000,A,4305.3444,N,07740.7952,W,24.43,268.35,051019,,,D*44
$GPGGA,210551.250,4305.3444,N,07740.7975,W,2,10,0.95,156.0,M,-34.4,M,0000,0000*54
$GPRMC,210551.500,A,4305.3443,N,07740.7998,W,24.77,267.33,051019,,,D*4E
$GPGGA,210551.750,4305.3443,N,07740.8022,W,2,10,0.95,156.0,M,-34.4,M,0000,0000*52
$GPRMC,210552.000,A,4305.3443,N,07740.8046,W,25.22,267.82,051019,,,D*46
$GPGGA,210552.250,4305.3442,N,07740.8070,W,2,10,0.95,156.0,M,-34.4,M,0000,0000*52
$GPRMC,210552.500,A,4305.3441,N,07740.8094,W,25.04,267.14,051019,,,D*45
$GPGGA,210552.750,4305.3440,N,07740.8117,W,2,10,0.95,156.0,M,-34.4,M,0000,0000*55
$GPRMC,210553.000,A,4305.3439,N,07740.8141,W,24.83,267.62,051019,,,D*48
$GPGGA,210553.250,4305.3438,N,07740.8164,W,2,10,0.95,156.0,M,-34.4,M,0000,0000*5A
$GPRMC,210553.500,A,4305.3437,N,07740.8187,W,24.47,267.61,051019,,,D*42
$GPGGA,210553.750,4305.3436,N,07740.8211,W,2,10,0.95,156.1,M,-34.4,M,0000,0000*51
$GPRMC,210554.000,A,4305.3436,N,07740.8234,W,24.09,267.65,051019,,,D*44
$GPGGA,210554.250,4305.3435,N,07740.8256,W,2,10,0.95,156.1,M,-34.4,M,0000,0000*53
$GPRMC,210554.500,A,4305.3434,N,07740.8279,W,23.75,267.37,051019,,,D*41
$GPGGA,210554.750,4305.3434,N,07740.8302,W,2,10,0.95,156.0,M,-34.4,M,0000,0000*56
$GPRMC,210555.000,A,4305.3433,N,07740.8324,W,23.46,267.59,051019,,,D*43
$GPGGA,210555.250,4305.3432,N,07740.8346,W,2,10,0.95,156.0,M,-34.4,M,0000,0000*54
$GPRMC,210555.500,A,4305.3432,N,07740.8368,W,23.22,268.05,051019,,,D*4B
$GPGGA,210555.750,4305.3431,N,07740.8390,W,2,10,0.95,155.9,M,-34.4,M,0000,0000*53
$GPRMC,210556.000,A,4305.3430,N,07740.8412,W,22.91,267.78,051019,,,D*49
$GPGGA,210556.250,4305.3430,N,07740.8434,W,2,10,0.95,155.9,M,-34.4,M,0000,0000*5D
$GPRMC,210556.500,A,4305.3429,N,07740.8455,W,22.61,268.90,051019,,,D*41
$GPGGA,210556.750,4305.3429,N,07740.8476,W,2,10,0.95,155.9,M,-34.4,M,0000,0000*56
$GPRMC,210557.000,A,4305.3429,N,07740.8498,W,22.28,269.42,051019,,,D*47
$GPGGA,210557.250,4305.3429,N,07740.8519,W,2,10,0.95,156.0,M,-34.4,M,0000,0000*50
$GPRMC,210557.500,A,4305.3429,N,07740.8540,W,21.95,270.02,051019,,,D*4F
$GPGGA,210557.750,4305.3429,N,07740.8560,W,2,10,0.95,156.0,M,-34.4,M,0000,0000*5B
$GPRMC,210558.000,A,4305.3429,N,07740.8581,W,21.66,271.48,051019,,,D*4B
$GPGGA,210558.250,4305.3430,N,07740.8602,W,2,10,0.95,156.0,M,-34.4,M,0000,0000*5E
$GPRMC,210558.500,A,4305.3430,N,07740.8622,W,21.34,273.07,051019,,,D*42
$GPGGA,210558.750,4305.3431,N,07740.8642,W,2,10,0.95,156.0,M,-34.4,M,0000,0000*5E
$GPRMC,210559.000,A,4305.3432,N,07740.8662,W,20.90,275.99,051019,,,D*4E
$GPGGA,210559.250,4305.3434,N,07740.8682,W,2,10,0.95,156.0,M,-34.4,M,0000,0000*53
$GPRMC,210559.500,A,4305.3435,N,07740.8702,W,20.62,277.40,051019,,,D*40
$GPGGA,210559.750,4305.3438,N,07740.8721,W,2,10,0.95,156.0,M,-34.4,M,0000,0000*52
$GPRMC,210600.000,A,4305.3440,N,07740.8740,W,20.53,278.75,051019,,,D*45
$GPGGA,210600.250,4305.3443,N,07740.8760,W,2,10,0.95,156.1,M,-34.4,M,0000,0000*50
$GPRMC,210600.500,A,4305.3446,N,07740.8778,W,19.93,281.98,051019,,,D*4E
$GPGGA,210600.750,4305.3449,N,07740.8796,W,2,10,0.95,156.1,M,-34.4,M,0000,0000*56
$GPRMC,210601.000,A,4305.3453,N,07740.8814,W,19.68,285.54,051019,,,D*4B
$GPGGA,210601.250,4305.3457,N,07740.8832,W,2,10,0.95,156.2,M,-34.4,M,0000,0000*5F
$GPRMC,210601.500,A,4305.3462,N,07740.8849,W,19.11,291.39,051019,,,D*44
$GPGGA,210601.750,4305.3467,N,07740.8865,W,2,10,0.95,156.4,M,-34.4,M,0000,0000*5D
$GPRMC,210602.000,A,4305.3472,N,07740.8880,W,18.21,295.19,051019,,,D*42
$GPGGA,210602.250,4305.3478,N,07740.8895,W,2,10,0.95,156.5,M,-34.4,M,0000,0000*5B
$GPRMC,210602.500,A,4305.3483,N,07740.8908,W,16.61,299.91,051019,,,D*4E
$GPGGA,210602.750,4305.3488,N,07740.8920,W,2,10,0.95,156.6,M,-34.4,M,0000,0000*5D
$GPRMC,210603.000,A,4305.3492,N,07740.8932,W,15.27,302.82,051019,,,D*43
$GPGGA,210603.250,4305.3497,N,07740.8943,W,2,10,0.95,156.6,M,-34.4,M,0000,0000*52
$GPRMC,210603.500,A,4305.3502,N,07740.8952,W,13.49,307.63,051019,,,D*4C
$GPGGA,210603.750,4305.3507,N,07740.8961,W,2,10,0.95,156.7,M,-34.4,M,0000,0000*5E
$GPRMC,210604.000,A,4305.3512,N,07740.8968,W,12.00,312.09,051019,,,D*42
$GPGGA,210604.250,4305.3516,N,07740.8974,W,2,10,0.95,156.8,M,-34.4,M,0000,0000*57
$GPRMC,210604.500,A,4305.3519,N,07740.8979,W,9.59,315.22,051019,,,D*74
$GPGGA,210604.750,4305.3523,N,07740.8983,W,2,10,0.95,156.7,M,-34.4,M,0000,0000*53
$GPRMC,210605.000,A,4305.3526,N,07740.8988,W,8.10,317.85,051019,,,D*71
$GPGGA,210605.250,4305.3529,N,07740.8993,W,2,10,0.95,156.7,M,-34.4,M,0000,0000*5C
$GPRMC,210605.500,A,4305.3533,N,07740.8997,W,8.31,322.47,051019,,,D*75
$GPGGA,210605.750,4305.3538,N,07740.9001,W,2,10,0.95,156.8,M,-34.4,M,0000,0000*55
$GPRMC,210606.000,A,4305.3544,N,07740.9004,W,8.76,331.58,051019,,,D*7E
$GPGGA,210606.250,4305.3552,N,07740.9006,W,2,10,0.95,156.8,M,-34.4,M,0000,0000*58
$GPRMC,210606.500,A,4305.3561,N,07740.9008,W,10.60,347.04,051019,,,D*46
$GPGGA,210606.750,4305.3569,N,07740.9009,W,2,10,0.95,156.8,M,-34.4,M,0000,0000*5A
$GPRMC,210607.000,A,4305.3577,N,07740.9010,W,11.23,356.70,051019,,,D*49
$GPGGA,210607.250,4305.3585,N,07740.9009,W,2,10,0.95,156.8,M,-34.4,M,0000,0000*5C
$GPRMC,210607.500,A,4305.3593,N,07740.9007,W,11.64,11.13,051019,,,D*76
$GPGGA,210607.750,4305.3602,N,07740.9004,W,2,10,0.95,156.3,M,-34.4,M,0000,0000*53
$GPRMC,210608.000,A,4305.3611,N,07740.8999,W,12.50,24.14,051019,,,D*7F
$GPGGA,210608.250,4305.3619,N,07740.8993,W,2,10,0.95,156.2,M,-34.4,M,0000,0000*54
$GPRMC,210608.500,A,4305.3628,N,07740.8986,W,14.05,33.54,051019,,,D*7A
$GPGGA,210608.750,4305.3637,N,07740.8977,W,2,10,0.95,156.2,M,-34.4,M,0000,0000*57
$GPRMC,210609.000,A,4305.3646,N,07740.8968,W,15.67,37.81,051019,,,D*7F
$GPGGA,210609.250,4305.3655,N,07740.8958,W,2,09,0.97,156.2,M,-34.4,M,0000,0000*50
$GPRMC,210609.500,A,4305.3664,N,07740.8948,W,16.68,38.60,051019,,,D*74
$GPGGA,210609.750,4305.3673,N,07740.8937,W,2,09,0.97,156.3,M,-34.4,M,0000,0000*59
$GPRMC,210610.000,A,4305.3683,N,07740.8927,W,17.36,38.67,051019,,,D*74
$GPGGA,210610.250,4305.3693,N,07740.8915,W,2,09,0.97,156.4,M,-34.4,M,0000,0000*5D
$GPRMC,210610.500,A,4305.3704,N,07740.8900,W,18.61,39.80,051019,,,D*7F
$GPGGA,210610.750,4305.3715,N,07740.8885,W,2,09,0.97,156.4,M,-34.4,M,0000,0000*5F
$GPRMC,210611.000,A,4305.3726,N,07740.8871,W,19.72,40.54,051019,,,D*78
$GPGGA,210611.250,4305.3737,N,07740.8857,W,2,08,1.20,156.4,M,-34.4,M,0000,0000*58
$GPRMC,210611.500,A,4305.3749,N,07740.8842,W,20.97,40.58,051019,,,D*79
$GPGGA,210611.750,4305.3762,N,07740.8826,W,2,09,0.97,156.5,M,-34.4,M,0000,0000*56
$GPRMC,210612.000,A,4305.3773,N,07740.8811,W,22.09,41.17,051019,,,D*7F
$GPGGA,210612.250,4305.3785,N,07740.8796,W,2,09,0.97,156.5,M,-34.4,M,0000,0000*5D
$GPRMC,210612.500,A,4305.3797,N,07740.8781,W,23.14,41.24,051019,,,D*7B
$GPGGA,210612.750,4305.3810,N,07740.8765,W,2,09,0.97,156.5,M,-34.4,M,0000,0000*57
$GPRMC,210613.000,A,4305.3822,N,07740.8749,W,24.16,41.25,051019,,,D*7E
$GPGGA,210613.250,4305.3836,N,07740.8733,W,2,09,0.97,156.6,M,-34.4,M,0000,0000*57
$GPRMC,210613.500,A,4305.3850,N,07740.8716,W,25.37,40.47,051019,,,D*73
$GPGGA,210613.750,4305.3864,N,07740.8700,W,2,08,1.20,156.6,M,-34.4,M,0000,0000*59
$GPRMC,210614.000,A,4305.3878,N,07740.8683,W,26.69,39.87,051019,,,D*7C
$GPGGA,210614.250,4305.3893,N,07740.8666,W,2,09,0.97,156.6,M,-34.4,M,0000,0000*5E
$GPRMC,210614.500,A,4305.3909,N,07740.8649,W,27.96,39.53,051019,,,D*70
$GPGGA,210614.750,4305.3924,N,07740.8631,W,2,09,0.97,156.5,M,-34.4,M,0000,0000*57
$GPRMC,210615.000,A,4305.3940,N,07740.8613,W,28.98,39.16,051019,,,D*76
$GPGGA,210615.250,4305.3956,N,07740.8595,W,2,09,0.97,156.5,M,-34.4,M,0000,0000*5B
$GPRMC,210615.500,A,4305.3973,N,07740.8577,W,30.01,38.88,051019,,,D*7D
$GPGGA,210615.750,4305.3990,N,07740.8559,W,2,09,0.97,156.5,M,-34.4,M,0000,0000*54
$GPRMC,210616.000,A,4305.4007,N,07740.8540,W,30.76,38.61,051019,,,D*75
$GPGGA,210616.250,4305.4024,N,07740.8521,W,2,08,1.20,156.5,M,-34.4,M,0000,0000*50
$GPRMC,210616.500,A,4305.4042,N,07740.8503,W,31.55,38.74,051019,,,D*72
$GPGGA,210616.750,4305.4059,N,07740.8483,W,2,09,1.14,156.5,M,-34.4,M,0000,0000*50
$GPRMC,210617.000,A,4305.4077,N,07740.8464,W,32.00,38.41,051019,,,D*75
$GPGGA,210617.250,4305.4096,N,07740.8444,W,2,08,1.20,156.4,M,-34.4,M,0000,0000*5B
$GPRMC,210617.500,A,4305.4114,N,07740.8424,W,33.28,38.46,051019,,,D*7C
$GPGGA,210617.750,4305.4133,N,07740.8404,W,2,08,1.28,156.4,M,-34.4,M,0000,0000*5C
$GPRMC,210618.000,A,4305.4152,N,07740.8383,W,34.02,38.40,051019,,,D*77
$GPGGA,210618.250,4305.4171,N,07740.8363,W,2,08,1.20,156.4,M,-34.4,M,0000,0000*5E
$GPRMC,210618.500,A,4305.4190,N,07740.8342,W,34.59,38.15,051019,,,D*7F
$GPGGA,210618.750,4305.4210,N,07740.8321,W,2,08,1.20,156.4,M,-34.4,M,0000,0000*59
$GPRMC,210619.000,A,4305.4230,N,07740.8301,W,35.26,37.86,051019,,,D*79
$GPGGA,210619.250,4305.4250,N,07740.8279,W,2,07,1.41,156.4,M,-34.4,M,0000,0000*5D
$GPRMC,210619.500,A,4305.4270,N,07740.8258,W,35.48,37.58,051019,,,D*7E
$GPGGA,210619.750,4305.4291,N,07740.8237,W,2,07,1.41,156.4,M,-34.4,M,0000,0000*5F
$GPRMC,210620.000,A,4305.4312,N,07740.8215,W,36.22,37.55,051019,,,D*7F
$GPGGA,210620.250,4305.4333,N,07740.8193,W,2,08,1.20,156.3,M,-34.4,M,0000,0000*5B
$GPRMC,210620.500,A,4305.4354,N,07740.8170,W,36.83,37.75,051019,,,D*71
$GPGGA,210620.750,4305.4377,N,07740.8147,W,2,08,1.20,156.2,M,-34.4,M,0000,0000*56
$GPRMC,210621.000,A,4305.4398,N,07740.8125,W,37.38,38.12,051019,,,D*7A
$GPGGA,210621.250,4305.4421,N,07740.8102,W,2,08,1.20,156.2,M,-34.4,M,0000,0000*57
$GPRMC,210621.500,A,4305.4443,N,07740.8080,W,37.51,38.04,051019,,,D*78
$GPGGA,210621.750,4305.4466,N,07740.8057,W,2,08,1.20,156.2,M,-34.4,M,0000,0000*50
$GPRMC,210622.000,A,4305.4487,N,07740.8035,W,37.82,38.07,051019,,,D*75
$GPGGA,210622.250,4305.4509,N,07740.8012,W,2,08,1.20,156.2,M,-34.4,M,0000,0000*5F
$GPRMC,210622.500,A,4305.4532,N,07740.7990,W,38.19,37.66,051019,,,D*73
$GPGGA,210622.750,4305.4554,N,07740.7967,W,2,08,1.20,156.3,M,-34.4,M,0000,0000*57
$GPRMC,210623.000,A,4305.4576,N,07740.7945,W,38.27,37.24,051019,,,D*74
$GPGGA,210623.250,4305.4597,N,07740.7923,W,2,08,1.20,156.3,M,-34.4,M,0000,0000*5C
$GPRMC,210623.500,A,4305.4619,N,07740.7902,W,38.18,35.69,051019,,,D*7F
$GPGGA,210623.750,4305.4640,N,07740.7881,W,2,08,1.20,156.3,M,-34.4,M,0000,0000*59
$GPRMC,210624.000,A,4305.4661,N,07740.7861,W,37.62,34.39,051019,,,D*70
$GPGGA,210624.250,4305.4683,N,07740.7841,W,2,08,1.20,156.4,M,-34.4,M,0000,0000*5F
$GPRMC,210624.500,A,4305.4705,N,07740.7822,W,37.34,33.03,051019,,,D*7C
$GPGGA,210624.750,4305.4726,N,07740.7802,W,2,09,1.12,156.5,M,-34.4,M,0000,0000*52
$GPRMC,210625.000,A,4305.4748,N,07740.7783,W,36.96,32.14,051019,,,D*7B
$GPGGA,210625.250,4305.4770,N,07740.7765,W,2,08,1.20,156.6,M,-34.4,M,0000,0000*58
$GPRMC,210625.500,A,4305.4792,N,07740.7747,W,36.74,30.38,051019,,,D*71
$GPGGA,210625.750,4305.4814,N,07740.7730,W,2,09,0.97,156.6,M,-34.4,M,0000,0000*5C
$GPRMC,210626.000,A,4305.4836,N,07740.7713,W,36.31,28.85,051019,,,D*79
$GPGGA,210626.250,4305.4858,N,07740.7697,W,2,09,0.97,156.7,M,-34.4,M,0000,0000*5F
$GPRMC,210626.500,A,4305.4880,N,07740.7681,W,35.85,27.23,051019,,,D*74
$GPGGA,210626.750,4305.4902,N,07740.7666,W,2,09,0.97,156.8,M,-34.4,M,0000,0000*55
$GPRMC,210627.000,A,4305.4924,N,07740.7651,W,35.58,26.35,051019,,,D*74
$GPGGA,210627.250,4305.4946,N,07740.7636,W,2,10,0.95,156.9,M,-34.4,M,0000,0000*5F
$GPRMC,210627.500,A,4305.4969,N,07740.7622,W,35.56,25.68,051019,,,D*79
$GPGGA,210627.750,4305.4992,N,07740.7608,W,2,10,0.95,156.9,M,-34.4,M,0000,0000*5E
$GPRMC,210628.000,A,4305.5015,N,07740.7594,W,35.82,24.37,051019,,,D*7C
$GPGGA,210628.250,4305.5038,N,07740.7580,W,2,10,0.95,156.9,M,-34.4,M,0000,0000*5F
$GPRMC,210628.500,A,4305.5062,N,07740.7567,W,35.90,23.52,051019,,,D*72
$GPGGA,210628.750,4305.5085,N,07740.7554,W,2,10,0.95,156.9,M,-34.4,M,0000,0000*55
$GPRMC,210629.000,A,4305.5108,N,07740.7540,W,36.13,22.81,051019,,,D*79
$GPGGA,210629.250,4305.5132,N,07740.7527,W,2,10,0.95,156.9,M,-34.4,M,0000,0000*58
$GPRMC,210629.500,A,4305.5155,N,07740.7514,W,36.32,22.51,051019,,,D*7B
$GPGGA,210629.750,4305.5179,N,07740.7501,W,2,10,0.95,156.9,M,-34.4,M,0000,0000*56
$GPRMC,210630.000,A,4305.5203,N,07740.7487,W,36.57,22.42,051019,,,D*7C
$GPGGA,210630.250,4305.5227,N,07740.7474,W,2,09,0.97,156.8,M,-34.4,M,0000,0000*5B
$GPRMC,210630.500,A,4305.5251,N,07740.7460,W,36.83,21.97,051019,,,D*75
$GPGGA,210630.750,4305.5276,N,07740.7447,W,2,10,0.95,156.8,M,-34.4,M,0000,0000*50
$GPRMC,210631.000,A,4305.5300,N,07740.7434,W,38.19,21.50,051019,,,D*73
$GPGGA,210631.250,4305.5324,N,07740.7420,W,2,10,0.95,156.8,M,-34.4,M,0000,0000*53
$GPRMC,210631.500,A,4305.5349,N,07740.7407,W,37.89,21.31,051019,,,D*7A
$GPGGA,210631.750,4305.5372,N,07740.7394,W,2,10,0.95,156.7,M,-34.4,M,0000,0000*52
$GPRMC,210632.000,A,4305.5397,N,07740.7382,W,38.28,21.29,051019,,,D*78
$GPGGA,210632.250,4305.5422,N,07740.7370,W,2,10,0.95,156.7,M,-34.4,M,0000,0000*5C
$GPRMC,210632.500,A,4305.5446,N,07740.7358,W,36.30,20.43,051019,,,D*7B
$GPGGA,210632.750,4305.5470,N,07740.7347,W,2,10,0.95,156.5,M,-34.4,M,0000,0000*58
$GPRMC,210633.000,A,4305.5494,N,07740.7336,W,36.21,19.34,051019,,,D*72
$GPGGA,210633.250,4305.5518,N,07740.7325,W,2,10,0.95,156.3,M,-34.4,M,0000,0000*51
$GPRMC,210633.500,A,4305.5543,N,07740.7314,W,36.20,18.47,051019,,,D*78
$GPGGA,210633.750,4305.5569,N,07740.7304,W,2,10,0.95,156.0,M,-34.4,M,0000,0000*52
$GPRMC,210634.000,A,4305.5595,N,07740.7294,W,36.45,17.71,051019,,,D*71
$GPGGA,210634.250,4305.5622,N,07740.7285,W,2,10,0.95,155.8,M,-34.4,M,0000,0000*5F
$GPRMC,210634.500,A,4305.5649,N,07740.7276,W,37.90,16.45,051019,,,D*75
$GPGGA,210634.750,4305.5675,N,07740.7266,W,2,09,0.97,156.0,M,-34.4,M,0000,0000*54
$GPRMC,210635.000,A,4305.5701,N,07740.7257,W,38.07,16.23,051019,,,D*7E
$GPGGA,210635.250,4305.5727,N,07740.7248,W,2,09,0.97,156.3,M,-34.4,M,0000,0000*59
$GPRMC,210635.500,A,4305.5754,N,07740.7238,W,38.41,16.12,051019,,,D*72
$GPGGA,210635.750,4305.5780,N,07740.7228,W,2,10,0.95,156.4,M,-34.4,M,0000,0000*5A
$GPRMC,210636.000,A,4305.5806,N,07740.7219,W,38.38,16.07,051019,,,D*75
$GPGGA,210636.250,4305.5833,N,07740.7209,W,2,10,0.95,156.3,M,-34.4,M,0000,0000*5F
$GPRMC,210636.500,A,4305.5859,N,07740.7199,W,38.72,15.87,051019,,,D*74
$GPGGA,210636.750,4305.5885,N,07740.7189,W,2,10,0.95,156.3,M,-34.4,M,0000,0000*5C
$GPRMC,210637.000,A,4305.5911,N,07740.7179,W,38.51,16.15,051019,,,D*7A
$GPGGA,210637.250,4305.5937,N,07740.7169,W,2,10,0.95,156.3,M,-34.4,M,0000,0000*5E
$GPRMC,210637.500,A,4305.5963,N,07740.7159,W,38.67,16.27,051019,,,D*7C
$GPGGA,210637.750,4305.5990,N,07740.7149,W,2,09,0.97,156.3,M,-34.4,M,0000,0000*5E
$GPRMC,210638.000,A,4305.6016,N,07740.7140,W,38.74,16.05,051019,,,D*74
$GPGGA,210638.250,4305.6042,N,07740.7130,W,2,09,0.97,156.2,M,-34.4,M,0000,0000*5E
$GPRMC,210638.500,A,4305.6069,N,07740.7120,W,38.69,15.77,051019,,,D*75
$GPGGA,210638.750,4305.6095,N,07740.7111,W,2,09,0.97,156.1,M,-34.4,M,0000,0000*51
$GPRMC,210639.000,A,4305.6122,N,07740.7101,W,38.73,15.16,051019,,,D*70
$GPGGA,210639.250,4305.6149,N,07740.7092,W,2,09,0.97,156.0,M,-34.4,M,0000,0000*5E
$GPRMC,210639.500,A,4305.6175,N,07740.7083,W,38.77,14.81,051019,,,D*77
$GPGGA,210639.750,4305.6202,N,07740.7074,W,2,09,0.97,155.9,M,-34.4,M,0000,0000*55
$GPRMC,210640.000,A,4305.6229,N,07740.7065,W,38.97,14.61,051019,,,D*7E
$GPGGA,210640.250,4305.6255,N,07740.7055,W,2,09,0.97,155.7,M,-34.4,M,0000,0000*51
$GPRMC,210640.500,A,4305.6282,N,07740.7046,W,39.34,14.29,051019,,,D*7F
$GPGGA,210640.750,4305.6309,N,07740.7037,W,2,09,0.97,155.6,M,-34.4,M,0000,0000*59
$GPRMC,210641.000,A,4305.6336,N,07740.7028,W,39.48,14.24,051019,,,D*7B
$GPGGA,210641.250,4305.6363,N,07740.7019,W,2,10,0.95,155.5,M,-34.4,M,0000,0000*54
$GPRMC,210641.500,A,4305.6391,N,07740.7010,W,39.67,14.06,051019,,,D*75
$GPGGA,210641.750,4305.6418,N,07740.7001,W,2,10,0.95,155.4,M,-34.4,M,0000,0000*52
$GPRMC,210642.000,A,4305.6446,N,07740.6992,W,39.84,13.77,051019,,,D*70
$GPGGA,210642.250,4305.6473,N,07740.6983,W,2,09,0.97,155.4,M,-34.4,M,0000,0000*51
$GPRMC,210642.500,A,4305.6501,N,07740.6974,W,40.86,13.91,051019,,,D*7B
$GPGGA,210642.750,4305.6529,N,07740.6965,W,2,09,0.97,155.3,M,-34.4,M,0000,0000*55
$GPRMC,210643.000,A,4305.6557,N,07740.6956,W,40.88,13.44,051019,,,D*7A
$GPGGA,210643.250,4305.6585,N,07740.6948,W,2,10,0.95,155.3,M,-34.4,M,0000,0000*52
$GPRMC,210643.500,A,4305.6613,N,07740.6939,W,40.83,12.76,051019,,,D*7E
$GPGGA,210643.750,4305.6641,N,07740.6931,W,2,10,0.95,155.3,M,-34.4,M,0000,0000*52
$GPRMC,210644.000,A,4305.6669,N,07740.6923,W,40.76,12.64,051019,,,D*73
$GPGGA,210644.250,4305.6696,N,07740.6915,W,2,10,0.95,155.3,M,-34.4,M,0000,0000*5C
$GPRMC,210644.500,A,4305.6724,N,07740.6907,W,41.10,12.56,051019,,,D*78
$GPGGA,210644.750,4305.6752,N,07740.6900,W,2,10,0.95,155.4,M,-34.4,M,0000,0000*53
$GPRMC,210645.000,A,4305.6780,N,07740.6892,W,41.10,12.20,051019,,,D*7E
$GPGGA,210645.250,4305.6809,N,07740.6884,W,2,10,0.95,155.4,M,-34.4,M,0000,0000*5B
$GPRMC,210645.500,A,4305.6838,N,07740.6877,W,41.23,11.47,051019,,,D*7E
$GPGGA,210645.750,4305.6866,N,07740.6869,W,2,10,0.95,155.5,M,-34.4,M,0000,0000*55
$GPRMC,210646.000,A,4305.6895,N,07740.6862,W,41.31,11.14,051019,,,D*7E
$GPGGA,210646.250,4305.6923,N,07740.6855,W,2,10,0.96,155.6,M,-34.4,M,0000,0000*5C
$GPRMC,210646.500,A,4305.6951,N,07740.6848,W,41.48,11.12,051019,,,D*72
$GPGGA,210646.750,4305.6978,N,07740.6841,W,2,10,0.96,155.7,M,-34.4,M,0000,0000*53
$GPRMC,210647.000,A,4305.7006,N,07740.6833,W,41.50,11.15,051019,,,D*7E
$GPGGA,210647.250,4305.7035,N,07740.6826,W,2,10,0.96,155.8,M,-34.4,M,0000,0000*58
$GPRMC,210647.500,A,4305.7063,N,07740.6819,W,41.27,11.07,051019,,,D*73
$GPGGA,210647.750,4305.7091,N,07740.6812,W,2,10,0.96,156.0,M,-34.4,M,0000,0000*5F
$GPRMC,210648.000,A,4305.7119,N,07740.6805,W,41.54,10.85,051019,,,D*77
$GPGGA,210648.250,4305.7148,N,07740.6798,W,2,09,0.97,156.1,M,-34.4,M,0000,0000*55
$GPRMC,210648.500,A,4305.7176,N,07740.6791,W,41.84,11.16,051019,,,D*7F
$GPGGA,210648.750,4305.7205,N,07740.6784,W,2,09,0.97,156.3,M,-34.4,M,0000,0000*55
$GPRMC,210649.000,A,4305.7233,N,07740.6776,W,41.94,11.17,051019,,,D*70
$GPGGA,210649.250,4305.7262,N,07740.6768,W,2,09,0.97,156.4,M,-34.4,M,0000,0000*55
$GPRMC,210649.500,A,4305.7291,N,07740.6760,W,42.20,11.57,051019,,,D*72
$GPGGA,210649.750,4305.7320,N,07740.6752,W,2,09,0.97,156.5,M,-34.4,M,0000,0000*5F
$GPRMC,210650.000,A,4305.7349,N,07740.6744,W,42.45,11.90,051019,,,D*75
$GPGGA,210650.250,4305.7378,N,07740.6735,W,2,09,0.97,156.5,M,-34.4,M,0000,0000*5E
$GPRMC,210650.500,A,4305.7407,N,07740.6727,W,42.79,12.25,051019,,,D*7A
$GPGGA,210650.750,4305.7437,N,07740.6718,W,2,10,0.96,156.5,M,-34.4,M,0000,0000*51
$GPRMC,210651.000,A,4305.7467,N,07740.6709,W,43.00,12.40,051019,,,D*78
$GPGGA,210651.250,4305.7497,N,07740.6700,W,2,09,0.97,156.6,M,-34.4,M,0000,0000*5C
$GPRMC,210651.500,A,4305.7527,N,07740.6691,W,42.97,13.30,051019,,,D*71
$GPGGA,210651.750,4305.7557,N,07740.6681,W,2,09,0.97,156.5,M,-34.4,M,0000,0000*5F
$GPRMC,210652.000,A,4305.7587,N,07740.6671,W,42.97,14.24,051019,,,D*71
$GPGGA,210652.250,4305.7616,N,07740.6661,W,2,09,0.97,156.5,M,-34.4,M,0000,0000*51
$GPRMC,210652.500,A,4305.7645,N,07740.6650,W,42.65,15.51,051019,,,D*74
$GPGGA,210652.750,4305.7674,N,07740.6639,W,2,09,1.14,156.4,M,-34.4,M,0000,0000*56
$GPRMC,210653.000,A,4305.7703,N,07740.6628,W,42.86,16.52,051019,,,D*71
$GPGGA,210653.250,4305.7732,N,07740.6617,W,2,10,0.95,156.4,M,-34.4,M,0000,0000*5D
$GPRMC,210653.500,A,4305.7760,N,07740.6605,W,42.68,17.18,051019,,,D*71
$GPGGA,210653.750,4305.7789,N,07740.6593,W,2,09,0.97,156.3,M,-34.4,M,0000,0000*5A
$GPRMC,210654.000,A,4305.7817,N,07740.6581,W,42.36,17.80,051019,,,D*79
$GPGGA,210654.250,4305.7844,N,07740.6568,W,2,09,0.97,156.3,M,-34.4,M,0000,0000*52
$GPRMC,210654.500,A,4305.7872,N,07740.6555,W,42.34,18.52,051019,,,D*74
$GPGGA,210654.750,4305.7899,N,07740.6543,W,2,10,0.96,156.4,M,-34.4,M,0000,0000*50
$GPRMC,210655.000,A,4305.7926,N,07740.6529,W,41.78,19.66,051019,,,D*76
$GPGGA,210655.250,4305.7951,N,07740.6515,W,2,09,0.97,156.8,M,-34.4,M,0000,0000*57
$GPRMC,210655.500,A,4305.7978,N,07740.6502,W,41.47,20.57,051019,,,D*75
$GPGGA,210655.750,4305.8005,N,07740.6488,W,2,09,0.97,156.9,M,-34.4,M,0000,0000*51
$GPRMC,210656.000,A,4305.8032,N,07740.6474,W,41.44,20.86,051019,,,D*74
$GPGGA,210656.250,4305.8059,N,07740.6460,W,2,09,0.97,157.0,M,-34.4,M,0000,0000*50
$GPRMC,210656.500,A,4305.8086,N,07740.6446,W,41.37,21.10,051019,,,D*75
$GPGGA,210656.750,4305.8112,N,07740.6432,W,2,09,0.97,157.1,M,-34.4,M,0000,0000*5D
$GPRMC,210657.000,A,4305.8140,N,07740.6418,W,41.33,21.12,051019,,,D*77
$GPGGA,210657.250,4305.8167,N,07740.6403,W,2,09,0.97,157.2,M,-34.4,M,0000,0000*5A
$GPRMC,210657.500,A,4305.8194,N,07740.6389,W,41.34,21.00,051019,,,D*70
$GPGGA,210657.750,4305.8220,N,07740.6375,W,2,09,0.97,157.3,M,-34.4,M,0000,0000*58
$GPRMC,210658.000,A,4305.8247,N,07740.6362,W,41.09,20.61,051019,,,D*7A
$GPGGA,210658.250,4305.8274,N,07740.6348,W,2,09,0.97,157.4,M,-34.4,M,0000,0000*5A
$GPRMC,210658.500,A,4305.8301,N,07740.6334,W,41.08,20.42,051019,,,D*7F
$GPGGA,210658.750,4305.8328,N,07740.6321,W,2,10,0.96,157.5,M,-34.4,M,0000,0000*50
$GPRMC,210659.000,A,4305.8355,N,07740.6308,W,40.89,20.30,051019,,,D*78
$GPGGA,210659.250,4305.8381,N,07740.6294,W,2,10,0.96,157.6,M,-34.4,M,0000,0000*5B
$GPRMC,210659.500,A,4305.8408,N,07740.6281,W,40.67,20.06,051019,,,D*77
$GPGGA,210659.750,4305.8435,N,07740.6268,W,2,09,1.14,157.6,M,-34.4,M,0000,0000*56
$GPRMC,210700.000,A,4305.8461,N,07740.6255,W,40.42,20.40,051019,,,D*7C
$GPGGA,210700.250,4305.8487,N,07740.6242,W,2,10,0.96,157.6,M,-34.4,M,0000,0000*5C
$GPRMC,210700.500,A,4305.8514,N,07740.6228,W,40.45,20.56,051019,,,D*70
$GPGGA,210700.750,4305.8540,N,07740.6215,W,2,10,0.96,157.7,M,-34.4,M,0000,0000*50
$GPRMC,210701.000,A,4305.8566,N,07740.6202,W,40.34,20.09,051019,,,D*75
$GPGGA,210701.250,4305.8592,N,07740.6189,W,2,10,0.96,157.7,M,-34.4,M,0000,0000*5D
$GPRMC,210701.500,A,4305.8618,N,07740.6176,W,40.29,19.47,051019,,,D*76
$GPGGA,210701.750,4305.8645,N,07740.6164,W,2,09,0.97,157.7,M,-34.4,M,0000,0000*5B
$GPRMC,210702.000,A,4305.8671,N,07740.6151,W,40.19,19.48,051019,,,D*76
$GPGGA,210702.250,4305.8698,N,07740.6138,W,2,09,0.97,157.5,M,-34.4,M,0000,0000*56
$GPRMC,210702.500,A,4305.8725,N,07740.6125,W,40.22,19.13,051019,,,D*76
$GPGGA,210702.750,4305.8751,N,07740.6112,W,2,09,0.97,157.3,M,-34.4,M,0000,0000*59
$GPRMC,210703.000,A,4305.8778,N,07740.6100,W,40.67,18.78,051019,,,D*70
$GPGGA,210703.250,4305.8805,N,07740.6087,W,2,09,0.97,157.1,M,-34.4,M,0000,0000*5C
$GPRMC,210703.500,A,4305.8832,N,07740.6075,W,40.28,18.92,051019,,,D*78
$GPGGA,210703.750,4305.8858,N,07740.6062,W,2,09,0.97,157.0,M,-34.4,M,0000,0000*5B
$GPRMC,210704.000,A,4305.8885,N,07740.6050,W,40.24,18.89,051019,,,D*77
$GPGGA,210704.250,4305.8912,N,07740.6038,W,2,10,0.96,156.8,M,-34.4,M,0000,0000*59
$GPRMC,210704.500,A,4305.8939,N,07740.6026,W,40.30,18.16,051019,,,D*76
$GPGGA,210704.750,4305.8966,N,07740.6014,W,2,10,0.96,156.6,M,-34.4,M,0000,0000*5F
$GPRMC,210705.000,A,4305.8993,N,07740.6002,W,40.57,17.52,051019,,,D*7A
$GPGGA,210705.250,4305.9020,N,07740.5991,W,2,10,0.96,156.5,M,-34.4,M,0000,0000*55
$GPRMC,210705.500,A,4305.9047,N,07740.5979,W,40.50,17.04,051019,,,D*7C
$GPGGA,210705.750,4305.9074,N,07740.5968,W,2,10,0.96,156.2,M,-34.4,M,0000,0000*50
$GPRMC,210706.000,A,4305.9101,N,07740.5957,W,40.52,16.92,051019,,,D*79
$GPGGA,210706.250,4305.9129,N,07740.5946,W,2,10,0.96,156.1,M,-34.4,M,0000,0000*50
$GPRMC,210706.500,A,4305.9156,N,07740.5935,W,40.85,16.44,051019,,,D*7B
$GPGGA,210706.750,4305.9184,N,07740.5924,W,2,09,0.97,156.0,M,-34.4,M,0000,0000*5E
$GPRMC,210707.000,A,4305.9212,N,07740.5912,W,41.21,16.58,051019,,,D*7B
$GPGGA,210707.250,4305.9239,N,07740.5901,W,2,09,0.97,155.9,M,-34.4,M,0000,0000*52
$GPRMC,210707.500,A,4305.9266,N,07740.5890,W,41.14,16.81,051019,,,D*74
$GPGGA,210707.750,4305.9294,N,07740.5878,W,2,09,0.97,155.9,M,-34.4,M,0000,0000*5F
$GPRMC,210708.000,A,4305.9321,N,07740.5867,W,41.07,17.06,051019,,,D*78
$GPGGA,210708.250,4305.9348,N,07740.5856,W,2,09,0.97,155.8,M,-34.4,M,0000,0000*58
$GPRMC,210708.500,A,4305.9376,N,07740.5845,W,40.92,16.42,051019,,,D*73
$GPGGA,210708.750,4305.9403,N,07740.5833,W,2,09,0.97,155.7,M,-34.4,M,0000,0000*59
$GPRMC,210709.000,A,4305.9431,N,07740.5822,W,41.08,16.43,051019,,,D*71
$GPGGA,210709.250,4305.9458,N,07740.5811,W,2,10,0.96,155.7,M,-34.4,M,0000,0000*5A
$GPRMC,210709.500,A,4305.9485,N,07740.5800,W,40.98,16.46,051019,,,D*76
$GPGGA,210709.750,4305.9513,N,07740.5790,W,2,10,0.96,155.6,M,-34.4,M,0000,0000*56
$GPRMC,210710.000,A,4305.9540,N,07740.5778,W,41.09,16.29,051019,,,D*73
$GPGGA,210710.250,4305.9568,N,07740.5767,W,2,10,0.96,155.5,M,-34.4,M,0000,0000*5C
$GPRMC,210710.500,A,4305.9596,N,07740.5756,W,41.45,16.55,051019,,,D*72
$GPGGA,210710.750,4305.9624,N,07740.5745,W,2,10,0.96,155.4,M,-34.4,M,0000,0000*53
$GPRMC,210711.000,A,4305.9652,N,07740.5734,W,41.74,16.47,051019,,,D*78
$GPGGA,210711.250,4305.9679,N,07740.5723,W,2,10,0.96,155.3,M,-34.4,M,0000,0000*58
$GPRMC,210711.500,A,4305.9707,N,07740.5711,W,41.42,16.49,051019,,,D*70
$GPGGA,210711.750,4305.9734,N,07740.5700,W,2,09,0.97,155.2,M,-34.4,M,0000,0000*5C
$GPRMC,210712.000,A,4305.9761,N,07740.5689,W,41.02,16.26,051019,,,D*7B
$GPGGA,210712.250,4305.9788,N,07740.5678,W,2,10,0.96,155.3,M,-34.4,M,0000,0000*5B
$GPRMC,210712.500,A,4305.9816,N,07740.5668,W,40.75,15.80,051019,,,D*70
$GPGGA,210712.750,4305.9843,N,07740.5657,W,2,10,0.96,155.3,M,-34.4,M,0000,0000*5B
$GPRMC,210713.000,A,4305.9870,N,07740.5647,W,40.75,14.99,051019,,,D*70
$GPGGA,210713.250,4305.9898,N,07740.5638,W,2,10,0.96,155.5,M,-34.4,M,0000,0000*56
$GPRMC,210713.500,A,4305.9925,N,07740.5629,W,40.67,13.74,051019,,,D*7B
$GPGGA,210713.750,4305.9953,N,07740.5620,W,2,10,0.96,155.6,M,-34.4,M,0000,0000*5F
$GPRMC,210714.000,A,4305.9981,N,07740.5612,W,40.87,12.62,051019,,,D*77
$GPGGA,210714.250,4306.0009,N,07740.5604,W,2,10,0.96,155.6,M,-34.4,M,0000,0000*57
$GPRMC,210714.500,A,4306.0036,N,07740.5597,W,40.81,11.25,051019,,,D*75
$GPGGA,210714.750,4306.0065,N,07740.5591,W,2,08,1.09,155.7,M,-34.4,M,0000,0000*58
$GPRMC,210715.000,A,4306.0092,N,07740.5584,W,40.76,10.03,051019,,,D*70
$GPGGA,210715.250,4306.0120,N,07740.5578,W,2,09,0.97,155.7,M,-34.4,M,0000,0000*5C
$GPRMC,210715.500,A,4306.0148,N,07740.5573,W,40.57,8.75,051019,,,D*40
$GPGGA,210715.750,4306.0176,N,07740.5567,W,2,09,1.07,155.8,M,-34.4,M,0000,0000*53
$GPRMC,210716.000,A,4306.0204,N,07740.5562,W,40.60,8.10,051019,,,D*4A
$GPGGA,210716.250,4306.0232,N,07740.5557,W,2,09,0.97,155.8,M,-34.4,M,0000,0000*5D
$GPRMC,210716.500,A,4306.0259,N,07740.5552,W,40.58,7.67,051019,,,D*40
$GPGGA,210716.750,4306.0286,N,07740.5548,W,2,09,0.97,155.9,M,-34.4,M,0000,0000*58
